Store Name,Store Number,Phone Number,Address,Url,Longitude,Latitude,City,State
Eagle River Supercenter,2188,907-694-9780,"18600 Eagle River Rd, Eagle River, AK 99577",https://www.walmart.com/store/2188-eagle-river-ak,-149.5354,61.309037,eagle,river
Fairbanks Supercenter,2722,907-451-9900,"537 Johansen Expy, Fairbanks, AK 99701",https://www.walmart.com/store/2722-fairbanks-ak,-147.6895,64.856378,fairbanks,ak
Kenai Supercenter,4474,907-395-0971,"10096 Kenai Spur Hwy, Kenai, AK 99611",https://www.walmart.com/store/4474-kenai-ak,-151.2252,60.564278,kenai,ak
Ketchikan Store,2710,907-247-2156,"4230 Don King Rd, Ketchikan, AK 99901",https://www.walmart.com/store/2710-ketchikan-ak,-131.7203,55.375474,ketchikan,ak
Kodiak Store,2711,907-481-1670,"2911 Mill Bay Rd, Kodiak, AK 99615",https://www.walmart.com/store/2711-kodiak-ak,-152.3652,57.811934,kodiak,ak
Wasilla Supercenter,2074,907-376-9780,"1350 S Seward Meridian Pkwy, Wasilla, AK 99654",https://www.walmart.com/store/2074-wasilla-ak,-149.3651,61.568719,wasilla,ak
Adamsville Supercenter,1158,205-798-9721,"2473 Hackworth Rd, Adamsville, AL 35214",https://www.walmart.com/store/1158-adamsville-al,-86.92423,33.579051,adamsville,al
Alexander City Supercenter,726,256-234-0316,"2643 Highway 280, Alexander City, AL 35010",https://www.walmart.com/store/726-alexander-city-al,-85.97582,32.941298,alexander,city
Andalusia Supercenter,1091,334-222-6561,"1991 M. L. King Jr., Andalusia, AL 36420",https://www.walmart.com/store/1091-andalusia-al,-86.44496,31.321761,andalusia,al
Anniston Supercenter,329,256-820-3326,"5560 Mcclellan Blvd, Anniston, AL 36206",https://www.walmart.com/store/329-anniston-al,-85.81983,33.720207,anniston,al
Arab Supercenter,306,256-586-8168,"1450 No. Brindlee Mt, Arab, AL 35016",https://www.walmart.com/store/306-arab-al,-86.50054,34.341786,arab,al
Athens Supercenter,661,256-230-2981,"1011 Us Highway 72 E, Athens, AL 35611",https://www.walmart.com/store/661-athens-al,-86.95884,34.788552,athens,al
Atmore Supercenter,7247,251-368-1403,"911 N Main St, Atmore, AL 36502",https://www.walmart.com/store/7247-atmore-al,-87.49517,31.037968,atmore,al
Attalla Supercenter,316,256-538-3811,"973 Gilbert Ferry Rd Se, Attalla, AL 35954",https://www.walmart.com/store/316-attalla-al,-86.09361,33.993761,attalla,al
Bay Minette Supercenter,2739,251-937-5558,"701 Mcmeans Ave, Bay Minette, AL 36507",https://www.walmart.com/store/2739-bay-minette-al,-87.79009,30.886057,bay,minette
Bessemer Supercenter,764,205-424-5890,"750 Academy Dr, Bessemer, AL 35022",https://www.walmart.com/store/764-bessemer-al,-87.00192,33.361589,bessemer,al
Boaz Supercenter,298,256-593-0195,"1972 Hwy 431, Boaz, AL 35957",https://www.walmart.com/store/298-boaz-al,-86.15340,34.214797,boaz,al
Brent Supercenter,425,205-926-4878,"10675 Highway 5, Brent, AL 35034",https://www.walmart.com/store/425-brent-al,-87.17188,32.963956,brent,al
Brewton Supercenter,1620,251-867-4680,"2578 Douglas Ave, Brewton, AL 36426",https://www.walmart.com/store/1620-brewton-al,-87.06373,31.148441,brewton,al
Calera Supercenter,3271,205-668-0831,"5100 Highway 31, Calera, AL 35040",https://www.walmart.com/store/3271-calera-al,-86.75188,33.146252,calera,al
Centre Supercenter,5126,256-927-9900,"1950 W Main St, Centre, AL 35960",https://www.walmart.com/store/5126-centre-al,-85.71261,34.162885,centre,al
Chelsea Supercenter,4330,205-678-2222,"16077 Highway 280, Chelsea, AL 35043",https://www.walmart.com/store/4330-chelsea-al,-86.61923,33.347786,chelsea,al
Clanton Supercenter,424,205-755-7574,"1415 7th St S, Clanton, AL 35045",https://www.walmart.com/store/424-clanton-al,-86.60941,32.816741,clanton,al
Daphne Supercenter,934,251-626-0923,"27520 Us Highway 98, Daphne, AL 36526",https://www.walmart.com/store/934-daphne-al,-87.90458,30.625092,daphne,al
Demopolis Supercenter,731,334-289-2385,"969 Us Highway 80 W, Demopolis, AL 36732",https://www.walmart.com/store/731-demopolis-al,-87.84928,32.493017,demopolis,al
Enterprise Supercenter,734,334-347-5353,"600 Boll Weevil Cir, Enterprise, AL 36330",https://www.walmart.com/store/734-enterprise-al,-85.82652,31.315813,enterprise,al
Eufaula Supercenter,1638,334-687-2218,"3176 S Eufaula Ave, Eufaula, AL 36027",https://www.walmart.com/store/1638-eufaula-al,-85.17104,31.843586,eufaula,al
Fairhope Supercenter,4333,251-990-9006,"10040 County Road 48, Fairhope, AL 36532",https://www.walmart.com/store/4333-fairhope-al,-87.84881,30.522315,fairhope,al
Fayette Supercenter,1052,205-932-5277,"3186 Highway 171 N, Fayette, AL 35555",https://www.walmart.com/store/1052-fayette-al,-87.80864,33.731681,fayette,al
Foley Supercenter,904,251-943-3400,"2200 S Mckenzie St, Foley, AL 36535",https://www.walmart.com/store/904-foley-al,-87.68641,30.382509,foley,al
Fort Payne Supercenter,691,256-845-3163,"2001 Glenn Blvd Sw, Fort Payne, AL 35968",https://www.walmart.com/store/691-fort-payne-al,-85.76183,34.440139,fort,payne
Gadsden Supercenter,301,256-547-2637,"340 E Meighan Blvd, Gadsden, AL 35903",https://www.walmart.com/store/301-gadsden-al,-85.98729,34.012884,gadsden,al
Gardendale Supercenter,1201,205-631-8110,"890 Odum Rd, Gardendale, AL 35071",https://www.walmart.com/store/1201-gardendale-al,-86.82276,33.647044,gardendale,al
Geneva Store,1063,334-684-3681,"1608 W Magnolia Ave, Geneva, AL 36340",https://www.walmart.com/store/1063-geneva-al,-85.89938,31.051466,geneva,al
Greenville Supercenter,1462,334-382-2655,"501 Willow Ln, Greenville, AL 36037",https://www.walmart.com/store/1462-greenville-al,-86.64722,31.849507,greenville,al
Gulf Shores Supercenter,2748,251-968-5871,"170 E Fort Morgan Rd, Gulf Shores, AL 36542",https://www.walmart.com/store/2748-gulf-shores-al,-87.68624,30.267429,gulf,shores
Guntersville Supercenter,681,256-878-0685,"11697 Us Highway 431, Guntersville, AL 35976",https://www.walmart.com/store/681-guntersville-al,-86.27898,34.299417,guntersville,al
Haleyville Supercenter,409,205-486-9498,"42466 Highway 195, Haleyville, AL 35565",https://www.walmart.com/store/409-haleyville-al,-87.59879,34.240523,haleyville,al
Hamilton Supercenter,1100,205-921-3090,"1706 Military St S, Hamilton, AL 35570",https://www.walmart.com/store/1100-hamilton-al,-87.99208,34.119544,hamilton,al
Hartselle Supercenter,1124,256-773-1675,"1201 Highway 31 Nw, Hartselle, AL 35640",https://www.walmart.com/store/1124-hartselle-al,-86.94860,34.452544,hartselle,al
Hazel Green Supercenter,6878,256-828-0486,"14595 Highway 231 431 N, Hazel Green, AL 35750",https://www.walmart.com/store/6878-hazel-green-al,-86.57480,34.945866,hazel,green
Helena Neighborhood Market,4189,205-624-1640,"335 Helena Marketplace, Helena, AL 35080",https://www.walmart.com/store/4189-helena-al,-86.85086,33.279558,helena,al
Homewood Supercenter,1481,205-945-8692,"209 Lakeshore Pkwy, Homewood, AL 35209",https://www.walmart.com/store/1481-homewood-al,-86.82100,33.447061,homewood,al
Hueytown Supercenter,4497,205-744-9997,"1007 Red Farmer Dr, Hueytown, AL 35023",https://www.walmart.com/store/4497-hueytown-al,-86.96832,33.460574,hueytown,al
Owens Cross Roads Supercenter,5197,256-534-4140,"330 Sutton Rd Se, Owens Cross Roads, AL 35763",https://www.walmart.com/store/5197-hunstville-al,-86.48543,34.657641,hunstville,al
Jackson Supercenter,2760,251-247-7101,"4206 N College Ave, Jackson, AL 36545",https://www.walmart.com/store/2760-jackson-al,-87.87550,31.559638,jackson,al
Jacksonville Supercenter,300,256-435-8100,"1625 Pelham Rd S, Jacksonville, AL 36265",https://www.walmart.com/store/300-jacksonville-al,-85.76502,33.788222,jacksonville,al
Jasper Supercenter,287,205-384-1100,"1801 Highway 78 E, Jasper, AL 35501",https://www.walmart.com/store/287-jasper-al,-87.25443,33.842929,jasper,al
Leeds Supercenter,562,205-699-0701,"8551 Whitfield Ave, Leeds, AL 35094",https://www.walmart.com/store/562-leeds-al,-86.51865,33.562249,leeds,al
Millbrook Supercenter,4318,334-285-0311,"145 Kelley Blvd, Millbrook, AL 36054",https://www.walmart.com/store/4318-millbrook-al,-86.39848,32.493848,millbrook,al
Monroeville Supercenter,1493,251-575-3333,"3371 S Alabama Ave, Monroeville, AL 36460",https://www.walmart.com/store/1493-monroeville-al,-87.32828,31.480615,monroeville,al
Moulton Supercenter,394,256-974-1128,"15445 Highway 24, Moulton, AL 35650",https://www.walmart.com/store/394-moulton-al,-87.27694,34.495579,moulton,al
Muscle Shoals Supercenter,660,256-381-0987,"301 Avalon Ave, Muscle Shoals, AL 35661",https://www.walmart.com/store/660-muscle-shoals-al,-87.67372,34.747901,muscle,shoals
Oneonta Supercenter,315,205-625-6474,"2453 2nd Ave E, Oneonta, AL 35121",https://www.walmart.com/store/315-oneonta-al,-86.44659,33.971218,oneonta,al
Opelika Supercenter,355,334-745-9333,"2900 Pepperell Pkwy, Opelika, AL 36801",https://www.walmart.com/store/355-opelika-al,-85.42169,32.637656,opelika,al
Orange Beach Neighborhood Market,5653,251-974-1810,"25241 Perdido Beach Blvd Ste W, Orange Beach, AL 36561",https://www.walmart.com/store/5653-orange-beach-al,-87.59428,30.269256,orange,beach
Oxford Supercenter,809,256-835-4701,"92 Plaza Ln, Oxford, AL 36203",https://www.walmart.com/store/809-oxford-al,-85.83234,33.598998,oxford,al
Ozark Supercenter,740,334-774-0272,"1537 S Us Highway 231, Ozark, AL 36360",https://www.walmart.com/store/740-ozark-al,-85.65071,31.445222,ozark,al
Pelham Supercenter,5262,205-987-0108,"2181 Pelham Pkwy, Pelham, AL 35124",https://www.walmart.com/store/5262-pelham-al,-86.79118,33.340851,pelham,al
Pell City Supercenter,5113,205-338-5300,"165 Vaughan Ln, Pell City, AL 35125",https://www.walmart.com/store/5113-pell-city-al,-86.27723,33.609393,pell,city
Prattville Supercenter,483,334-361-2135,"1903 Cobbs Ford Rd, Prattville, AL 36066",https://www.walmart.com/store/483-prattville-al,-86.41631,32.463135,prattville,al
Roanoke Supercenter,863,334-863-2147,"4180 Us Hwy 431, Roanoke, AL 36274",https://www.walmart.com/store/863-roanoke-al,-85.36443,33.164667,roanoke,al
Robertsdale Supercenter,6173,251-947-4424,"21141 State Highway 59, Robertsdale, AL 36567",https://www.walmart.com/store/6173-robertsdale-al,-87.71108,30.532086,robertsdale,al
Russellville Supercenter,403,256-332-7382,"13675 Highway 43, Russellville, AL 35653",https://www.walmart.com/store/403-russellville-al,-87.72901,34.495376,russellville,al
Saraland Supercenter,1212,251-675-8000,"1095 Industrial Pkwy, Saraland, AL 36571",https://www.walmart.com/store/1212-saraland-al,-88.09705,30.799311,saraland,al
Scottsboro Supercenter,712,256-574-1126,"24833 John T Reid Pkwy, Scottsboro, AL 35768",https://www.walmart.com/store/712-scottsboro-al,-86.00579,34.668443,scottsboro,al
Selma Supercenter,700,334-874-7793,"1501 Al Highway 14 E, Selma, AL 36703",https://www.walmart.com/store/700-selma-al,-87.01294,32.434137,selma,al
Semmes Supercenter,5174,251-645-8224,"7855 Moffett Rd, Semmes, AL 36575",https://www.walmart.com/store/5174-semmes-al,-88.22952,30.761799,semmes,al
Springville Supercenter,3386,205-467-6656,"160 Springville Station Blvd, Springville, AL 35146",https://www.walmart.com/store/3386-springville-al,-86.43294,33.779732,springville,al
Sumiton Supercenter,2723,205-648-4100,"690 Highway 78, Sumiton, AL 35148",https://www.walmart.com/store/2723-sumiton-al,-87.04179,33.745493,sumiton,al
Sylacauga Supercenter,730,256-245-0356,"41301 Us Highway 280, Sylacauga, AL 35150",https://www.walmart.com/store/730-sylacauga-al,-86.28540,33.175908,sylacauga,al
Talladega Supercenter,432,256-761-1681,"214 Haynes St, Talladega, AL 35160",https://www.walmart.com/store/432-talladega-al,-86.08036,33.438617,talladega,al
Tallassee Supercenter,1057,334-283-6841,"2190 Gilmer Avenue, Tallassee, AL 36078",https://www.walmart.com/store/1057-tallassee-al,-85.93133,32.565919,tallassee,al
Theodore Neighborhood Market,5744,251-370-1723,"7320 Theodore Dawes Rd, Theodore, AL 36582",https://www.walmart.com/store/5744-theodore-al,-88.21398,30.563659,theodore,al
Thomasville Supercenter,1174,334-636-0219,"34301 Highway 43, Thomasville, AL 36784",https://www.walmart.com/store/1174-thomasville-al,-87.73949,31.939592,thomasville,al
Troy Supercenter,723,334-566-8012,"1420 Highway 231 S, Troy, AL 36081",https://www.walmart.com/store/723-troy-al,-85.93932,31.780755,troy,al
Birmingham Supercenter,2713,205-661-1957,"5919 Trussville Crossings Pkwy, Birmingham, AL 35235",https://www.walmart.com/store/2713-trussville-al,-86.62916,33.639101,trussville,al
Valley Supercenter,733,334-768-2118,"3501 20th Ave, Valley, AL 36854",https://www.walmart.com/store/733-valley-al,-85.17876,32.834994,valley,al
Vestavia Hills Neighborhood Market,4580,205-822-9994,"1300 Montgomery Hwy, Vestavia Hills, AL 35216",https://www.walmart.com/store/4580-vestavia-hills-al,-86.79182,"33.42864,",vestavia,hills
Wetumpka Supercenter,1101,334-567-3066,"4538 Us Highway 231, Wetumpka, AL 36092",https://www.walmart.com/store/1101-wetumpka-al,-86.21218,32.507362,wetumpka,al
Winfield Supercenter,362,205-487-4359,"2575 Us Highway 43, Winfield, AL 35594",https://www.walmart.com/store/362-winfield-al,-87.84052,33.935256,winfield,al
Alma Supercenter,358,479-632-4585,"367 W Cherry St, Alma, AR 72921",https://www.walmart.com/store/358-alma-ar,-94.22879,35.479122,alma,ar
Arkadelphia Supercenter,318,870-246-2459,"109 Wp Malone Dr, Arkadelphia, AR 71923",https://www.walmart.com/store/318-arkadelphia-ar,-93.09656,34.119874,arkadelphia,ar
Ash Flat Supercenter,160,870-994-7520,"219 Highway 412, Ash Flat, AR 72513",https://www.walmart.com/store/160-ash-flat-ar,-91.59629,36.241189,ash,flat
Ashdown Supercenter,133,870-898-5126,"297 Hwy 32 By-pass E, Ashdown, AR 71822",https://www.walmart.com/store/133-ashdown-ar,-94.10928,33.657021,ashdown,ar
Batesville Supercenter,119,870-793-9004,"3150 Harrison St, Batesville, AR 72501",https://www.walmart.com/store/119-batesville-ar,-91.61425,35.762726,batesville,ar
Beebe Supercenter,4168,501-882-1017,"2003 W Center St, Beebe, AR 72012",https://www.walmart.com/store/4168-beebe-ar,-91.90541,35.065651,beebe,ar
Benton Supercenter,85,501-860-6135,"17309 Interstate 30 S, Benton, AR 72015",https://www.walmart.com/store/85-benton-ar,-92.58018,34.577512,benton,ar
Berryville Supercenter,76,870-423-4636,"1000 W Trimble Ave, Berryville, AR 72616",https://www.walmart.com/store/76-berryville-ar,-93.58701,36.376273,berryville,ar
Blytheville Supercenter,62,870-763-0440,"3700 E Highway 18, Blytheville, AR 72315",https://www.walmart.com/store/62-blytheville-ar,-89.87227,35.931101,blytheville,ar
Booneville Supercenter,55,479-675-3688,"1400 East Main St, Booneville, AR 72927",https://www.walmart.com/store/55-booneville-ar,-93.90265,35.139838,booneville,ar
Bryant Supercenter,3230,501-847-2857,"400 Bryant Ave, Bryant, AR 72022",https://www.walmart.com/store/3230-bryant-ar,-92.49446,34.624163,bryant,ar
Camden Supercenter,171,870-836-8000,"950 California Ave Sw, Camden, AR 71701",https://www.walmart.com/store/171-camden-ar,-92.83682,33.567226,camden,ar
Centerton Neighborhood Market,6953,479-795-4100,"1800 E Centerton Blvd, Centerton, AR 72712",https://www.walmart.com/store/6953-centerton-ar,-94.25302,36.358878,centerton,ar
Clarksville Supercenter,66,479-754-2046,"230 Market St., Clarksville, AR 72830",https://www.walmart.com/store/66-clarksville-ar,-93.46047,35.448688,clarksville,ar
Clinton Supercenter,788,501-745-2498,"1966 Highway 65 S, Clinton, AR 72031",https://www.walmart.com/store/788-clinton-ar,-92.45444,35.566853,clinton,ar
Crossett Supercenter,167,870-364-2165,"910 Unity Rd, Crossett, AR 71635",https://www.walmart.com/store/167-crossett-ar,-91.94218,33.136263,crossett,ar
Dardanelle Supercenter,296,479-229-2502,"1172 N State Highway 7, Dardanelle, AR 72834",https://www.walmart.com/store/296-dardanelle-ar,-93.16657,35.217953,dardanelle,ar
De Queen Supercenter,279,870-642-2794,"926 E Collin Raye Dr, De Queen, AR 71832",https://www.walmart.com/store/279-de-queen-ar,-94.31908,34.043619,de,queen
El Dorado Supercenter,530,870-862-2128,"2730 N West Ave, El Dorado, AR 71730",https://www.walmart.com/store/530-el-dorado-ar,-92.66868,33.241937,el,dorado
Farmington Neighborhood Market,7242,479-267-0040,"367 W Main St, Farmington, AR 72730",https://www.walmart.com/store/7242-farmington-ar,-94.25623,36.036758,farmington,ar
Flippin Supercenter,1147,870-453-2211,"168 Walmart Dr, Flippin, AR 72634",https://www.walmart.com/store/1147-flippin-ar,-92.60450,36.275329,flippin,ar
Fordyce Store,339,870-352-5167,"1123 Highway 79 167 Byp, Fordyce, AR 71742",https://www.walmart.com/store/339-fordyce-ar,-92.43550,33.820451,fordyce,ar
Forrest City Supercenter,91,870-633-0021,"205 Deadrick Rd, Forrest City, AR 72335",https://www.walmart.com/store/91-forrest-city-ar,-90.79358,35.028039,forrest,city
Greenbrier Neighborhood Market,7317,501-287-6001,"75 South Broadview, Greenbrier, AR 72058",https://www.walmart.com/store/7317-greenbrier-ar,-92.38956,35.225788,greenbrier,ar
Greenwood Supercenter,3231,479-996-8500,"551 Liberty Dr, Greenwood, AR 72936",https://www.walmart.com/store/3231-greenwood-ar,-94.29665,35.220709,greenwood,ar
Harrison Supercenter,2,870-365-8400,"161 N Walmart Dr, Harrison, AR 72601",https://www.walmart.com/store/2-harrison-ar,-93.13913,36.268968,harrison,ar
Heber Spgs Supercenter,281,501-362-8188,"1500 Hwy 25b, Heber Spgs, AR 72543",https://www.walmart.com/store/281-heber-spgs-ar,-92.03214,35.507372,heber,spgs
Helena-west Helena Supercenter,714,870-572-2442,"602 Shelia Street, Helena-west Helena, AR 72390",https://www.walmart.com/store/714-helena-west-helena-ar,-90.65063,34.555517,helena,west
Hope Supercenter,1065,870-777-5500,"2400 N Hervey St, Hope, AR 71801",https://www.walmart.com/store/1065-hope-ar,-93.61465,33.680862,hope,ar
Hot Springs Village Supercenter,5433,501-318-0185,"3604 N Highway 7, Hot Springs Village, AR 71909",https://www.walmart.com/store/5433-hot-springs-village-ar,-93.05583,34.632394,hot,springs
Huntsville Supercenter,373,479-738-2001,"157 Gary Hatfield Way, Huntsville, AR 72740",https://www.walmart.com/store/373-huntsville-ar,-93.71594,36.112817,huntsville,ar
Jacksonville Supercenter,24,501-985-8731,"2000 John Harden Dr, Jacksonville, AR 72076",https://www.walmart.com/store/24-jacksonville-ar,-92.11267,34.885192,jacksonville,ar
Lonoke Supercenter,169,501-676-3191,"322 Brownsville Loop, Lonoke, AR 72086",https://www.walmart.com/store/169-lonoke-ar,-91.89410,34.805277,lonoke,ar
Magnolia Supercenter,83,870-234-7800,"60 Highway 79 N, Magnolia, AR 71753",https://www.walmart.com/store/83-magnolia-ar,-93.21211,33.276654,magnolia,ar
Malvern Supercenter,127,501-337-9485,"1910 Martin Luther King Blvd, Malvern, AR 72104",https://www.walmart.com/store/127-malvern-ar,-92.83273,34.390735,malvern,ar
,4654,,,https://www.walmart.com/store/4654-marion-ar,"{""props"":","{""props"":",marion,ar
Mcgehee Store,289,870-222-4184,"1001 Highway 65 S, Mcgehee, AR 71654",https://www.walmart.com/store/289-mcgehee-ar,-91.38128,33.604017,mcgehee,ar
Mena Supercenter,67,479-394-0025,"600 Highway 71 N, Mena, AR 71953",https://www.walmart.com/store/67-mena-ar,-94.22587,34.588589,mena,ar
Monticello Supercenter,348,870-367-0409,"427 Highway 425 N, Monticello, AR 71655",https://www.walmart.com/store/348-monticello-ar,-91.80480,33.635887,monticello,ar
Morrilton Supercenter,8,501-354-0290,"1621 North Business 9, Morrilton, AR 72110",https://www.walmart.com/store/8-morrilton-ar,-92.72673,35.168854,morrilton,ar
Mountain Home Supercenter,11,870-492-9299,"65 Walmart Dr, Mountain Home, AR 72653",https://www.walmart.com/store/11-mountain-home-ar,-92.34088,36.355015,mountain,home
Mountain View Supercenter,1114,870-269-4395,"409 Sylamore Ave, Mountain View, AR 72560",https://www.walmart.com/store/1114-mountain-view-ar,-92.10192,35.867097,mountain,view
Nashville Supercenter,33,870-845-1881,"1710 S 4th St, Nashville, AR 71852",https://www.walmart.com/store/33-nashville-ar,-93.85736,33.925391,nashville,ar
Newport Supercenter,18,870-523-2500,"1211 Highway 367 N, Newport, AR 72112",https://www.walmart.com/store/18-newport-ar,-91.25491,35.617886,newport,ar
Osceola Supercenter,74,870-563-3251,"2720 W Keiser Ave, Osceola, AR 72370",https://www.walmart.com/store/74-osceola-ar,-90.01253,35.700143,osceola,ar
Ozark Store,209,479-667-2143,"1516 N 18th St, Ozark, AR 72949",https://www.walmart.com/store/209-ozark-ar,-93.84380,35.503709,ozark,ar
Paris Store,230,479-963-2152,"1501 E Walnut St, Paris, AR 72855",https://www.walmart.com/store/230-paris-ar,-93.71622,35.293364,paris,ar
Pea Ridge Neighborhood Market,6971,479-451-9002,"240 Slack Street, Pea Ridge, AR 72751",https://www.walmart.com/store/6971-pea-ridge-ar,-94.11914,36.443317,pea,ridge
Pine Bluff Supercenter,3331,870-534-7054,"5501 S Olive St, Pine Bluff, AR 71603",https://www.walmart.com/store/3331-pine-bluff-ar,-92.00312,34.173882,pine,bluff
Pocahontas Supercenter,71,870-892-7703,"1415 Highway 67 S, Pocahontas, AR 72455",https://www.walmart.com/store/71-pocahontas-ar,-90.96342,36.248781,pocahontas,ar
Sheridan Supercenter,336,870-942-7171,"1308 S Rock St, Sheridan, AR 72150",https://www.walmart.com/store/336-sheridan-ar,-92.39712,34.291396,sheridan,ar
Stuttgart Supercenter,102,870-673-3349,"406 E 22nd St, Stuttgart, AR 72160",https://www.walmart.com/store/102-stuttgart-ar,-91.54905,34.477058,stuttgart,ar
Texarkana Supercenter,468,870-772-1501,"133 Arkansas Blvd, Texarkana, AR 71854",https://www.walmart.com/store/468-texarkana-ar,-94.03979,33.462185,texarkana,ar
Trumann Supercenter,229,870-483-1971,"512 Industrial Park Dr, Trumann, AR 72472",https://www.walmart.com/store/229-trumann-ar,-90.54990,35.681455,trumann,ar
Van Buren Supercenter,16,479-474-2314,"2214 Fayetteville Rd, Van Buren, AR 72956",https://www.walmart.com/store/16-van-buren-ar,-94.35334,35.469087,van,buren
Walnut Ridge Store,57,870-886-6605,"1600 W Main St, Walnut Ridge, AR 72476",https://www.walmart.com/store/57-walnut-ridge-ar,-90.97425,36.076652,walnut,ridge
West Memphis Supercenter,70,870-732-0175,"798 W Service Rd, West Memphis, AR 72301",https://www.walmart.com/store/70-west-memphis-ar,-90.19994,35.165474,west,memphis
Wynne Supercenter,68,870-238-8129,"800 Highway 64 E, Wynne, AR 72396",https://www.walmart.com/store/68-wynne-ar,-90.77741,35.253327,wynne,ar
Anthem Supercenter,5329,623-551-6314,"4435 W Anthem Way, Anthem, AZ 85086",https://www.walmart.com/store/5329-anthem-az,-112.1549,33.869578,anthem,az
Apache Junction Supercenter,1381,480-380-3800,"2555 W Apache Trl, Apache Junction, AZ 85120",https://www.walmart.com/store/1381-apache-junction-az,-111.5753,33.413821,apache,junction
Avondale Supercenter,2554,623-935-4010,"13055 W Rancho Santa Fe Blvd, Avondale, AZ 85392",https://www.walmart.com/store/2554-avondale-az,-112.3381,33.459128,avondale,az
Benson Supercenter,3807,520-586-0742,"201 S Prickly Pear Ave, Benson, AZ 85602",https://www.walmart.com/store/3807-benson-az,-110.3142,31.968821,benson,az
Buckeye Supercenter,3407,623-474-6728,"1060 S Watson Rd, Buckeye, AZ 85326",https://www.walmart.com/store/3407-buckeye-az,-112.5603,33.436922,buckeye,az
Bullhead City Supercenter,1370,928-758-7222,"2840 Highway 95, Bullhead City, AZ 86442",https://www.walmart.com/store/1370-bullhead-city-az,-114.5941,35.082515,bullhead,city
Casa Grande Supercenter,1218,520-421-1200,"1741 E Florence Blvd, Casa Grande, AZ 85122",https://www.walmart.com/store/1218-casa-grande-az,-111.7121,32.877249,casa,grande
Cave Creek Supercenter,5835,480-296-7398,"34399 N Cave Creek Rd, Cave Creek, AZ 85331",https://www.walmart.com/store/5835-cave-creek-az,-111.9622,33.796641,cave,creek
Claypool Supercenter,1334,928-425-7171,"100 South Ragus Rd, Claypool, AZ 85532",https://www.walmart.com/store/1334-claypool-az,-110.8357,33.412654,claypool,az
Coolidge Supercenter,2778,520-723-0945,"1695 N Arizona Blvd, Coolidge, AZ 85128",https://www.walmart.com/store/2778-coolidge-az,-111.5202,33.000049,coolidge,az
Cottonwood Supercenter,1299,928-634-0444,"2003 E Rodeo Dr, Cottonwood, AZ 86326",https://www.walmart.com/store/1299-cottonwood-az,-112.0013,34.712923,cottonwood,az
Douglas Supercenter,1846,520-364-1281,"199 W 5th St, Douglas, AZ 85607",https://www.walmart.com/store/1846-douglas-az,-109.5655,31.338217,douglas,az
El Mirage Supercenter,4336,623-583-1321,"12900 W Thunderbird Rd, El Mirage, AZ 85335",https://www.walmart.com/store/4336-el-mirage-az,-112.3364,33.610608,el,mirage
Fort Mohave Supercenter,4203,928-768-5988,"5210 S Highway 95, Fort Mohave, AZ 86426",https://www.walmart.com/store/4203-fort-mohave-az,-114.5946,35.005729,fort,mohave
Kingman Supercenter,2051,928-692-0555,"3396 Stockton Hill Rd, Kingman, AZ 86409",https://www.walmart.com/store/2051-kingman-az,-114.0327,35.222576,kingman,az
Lake Havasu City Supercenter,1364,928-764-3700,"5695 Highway 95 N, Lake Havasu City, AZ 86404",https://www.walmart.com/store/1364-lake-havasu-city-az,-114.3681,34.571629,lake,havasu
Tucson Supercenter,5031,520-744-3652,"8280 N Cortaro Rd, Tucson, AZ 85743",https://www.walmart.com/store/5031-marana-az,-111.0894,32.356262,marana,az
Maricopa Supercenter,4430,520-568-0846,"41650 W Maricopa Casa Grande Hwy, Maricopa, AZ 85138",https://www.walmart.com/store/4430-maricopa-az,-112.0141,33.039112,maricopa,az
Nogales Supercenter,1324,520-281-4974,"100 W White Park Dr, Nogales, AZ 85621",https://www.walmart.com/store/1324-nogales-az,-110.9323,31.360213,nogales,az
Page Supercenter,1442,928-645-2622,"1017 West Haul Road, Page, AZ 86040",https://www.walmart.com/store/1442-page-az,-111.4872,36.904863,page,az
Parker Supercenter,4543,928-669-2161,"100 W Riverside Dr, Parker, AZ 85344",https://www.walmart.com/store/4543-parker-az,-114.2777,34.157361,parker,az
Payson Supercenter,1369,928-474-0029,"300 N Beeline Hwy, Payson, AZ 85541",https://www.walmart.com/store/1369-payson-az,-111.3253,34.244396,payson,az
Prescott Valley Supercenter,3730,928-499-3136,"3450 N Glassford Hill Rd, Prescott Valley, AZ 86314",https://www.walmart.com/store/3730-prescott-valley-az,-112.3414,34.592452,prescott,valley
Queen Creek Supercenter,4451,480-457-1158,"21055 E Rittenhouse Rd, Queen Creek, AZ 85142",https://www.walmart.com/store/4451-queen-creek-az,-111.6295,33.251461,queen,creek
Safford Supercenter,1149,928-428-7990,"755 S 20th Ave, Safford, AZ 85546",https://www.walmart.com/store/1149-safford-az,-109.7302,32.832707,safford,az
Green Valley Supercenter,1411,520-625-3808,"18680 S Nogales Hwy, Green Valley, AZ 85614",https://www.walmart.com/store/1411-sahuarita-az,-110.9812,31.911235,sahuarita,az
San Luis Supercenter,4337,928-722-7278,"1613 N Main St, San Luis, AZ 85349",https://www.walmart.com/store/4337-san-luis-az,-114.7834,32.507315,san,luis
San Tan Valley Supercenter,3751,480-677-2149,"1725 W Hunt Hwy, San Tan Valley, AZ 85143",https://www.walmart.com/store/3751-san-tan-valley-az,-111.5846,33.176342,san,tan
Show Low Supercenter,1230,928-537-3141,"5401 S White Mountain Rd, Show Low, AZ 85901",https://www.walmart.com/store/1230-show-low-az,-110.0156,34.200441,show,low
Sierra Vista Supercenter,1240,520-458-8790,"500 N Highway 90 Byp, Sierra Vista, AZ 85635",https://www.walmart.com/store/1240-sierra-vista-az,-110.2604,31.560187,sierra,vista
Taylor Supercenter,4355,928-536-2543,"715 N Main St, Taylor, AZ 85939",https://www.walmart.com/store/4355-taylor-az,-110.0848,34.473716,taylor,az
Winslow Supercenter,1328,928-289-4641,"700 Mikes Pike St, Winslow, AZ 86047",https://www.walmart.com/store/1328-winslow-az,-110.7016,35.043309,winslow,az
American Canyon Supercenter,1651,707-557-4393,"7011 Main St, American Canyon, CA 94503",https://www.walmart.com/store/1651-american-canyon-ca,-122.2526,38.182987,american,canyon
Anderson Supercenter,5133,530-378-0244,"5000 Rhonda Rd, Anderson, CA 96007",https://www.walmart.com/store/5133-anderson-ca,-122.2895,40.431309,anderson,ca
Antioch Supercenter,2697,925-755-0900,"4893 Lone Tree Way, Antioch, CA 94531",https://www.walmart.com/store/2697-antioch-ca,-121.7616,37.963462,antioch,ca
Apple Valley Store,2333,760-946-2030,"20251 Hwy 18, Apple Valley, CA 92307",https://www.walmart.com/store/2333-apple-valley-ca,-117.2232,34.525601,apple,valley
Arroyo Grande Store,2556,805-474-0800,"1168 W Branch St, Arroyo Grande, CA 93420",https://www.walmart.com/store/2556-arroyo-grande-ca,-120.5977,35.128952,arroyo,grande
Atwater Supercenter,5890,209-676-3087,"800 Commerce Ave, Atwater, CA 95301",https://www.walmart.com/store/5890-atwater-ca,-120.6092,37.340296,atwater,ca
Baldwin Park Supercenter,3522,626-814-2235,"3250 Big Dalton Ave, Baldwin Park, CA 91706",https://www.walmart.com/store/3522-baldwin-park-ca,-117.9634,34.071943,baldwin,park
Barstow Supercenter,1879,760-252-5000,"301 Montara Rd, Barstow, CA 92311",https://www.walmart.com/store/1879-barstow-ca,-116.9917,34.882609,barstow,ca
Beaumont Supercenter,5156,951-845-1529,"1540 E 2nd St, Beaumont, CA 92223",https://www.walmart.com/store/5156-beaumont-ca,-116.9516,33.925116,beaumont,ca
Brawley Supercenter,5335,760-351-0186,"250 Wildcat Dr, Brawley, CA 92227",https://www.walmart.com/store/5335-brawley-ca,-115.5458,32.962431,brawley,ca
Brea Store,2523,714-529-0596,"2595 E Imperial Hwy, Brea, CA 92821",https://www.walmart.com/store/2523-brea-ca,-117.8653,33.913511,brea,ca
Buena Park Store,5032,714-484-8668,"8450 La Palma Ave, Buena Park, CA 90620",https://www.walmart.com/store/5032-buena-park-ca,-117.9867,33.844672,buena,park
Burbank Supercenter,5686,747-261-7243,"1301 N Victory Pl, Burbank, CA 91502",https://www.walmart.com/store/5686-burbank-ca,-118.3251,34.188201,burbank,ca
Calexico Supercenter,1859,760-768-5013,"2540 Rockwood Ave, Calexico, CA 92231",https://www.walmart.com/store/1859-calexico-ca,-115.4966,32.697665,calexico,ca
Camarillo Neighborhood Market,5664,805-233-3378,"275 West Ventura Blvd, Camarillo, CA 93010",https://www.walmart.com/store/5664-camarillo-ca,-119.0746,34.217292,camarillo,ca
Carmichael Neighborhood Market,5981,916-534-1157,"6005 Madison Ave, Carmichael, CA 95608",https://www.walmart.com/store/5981-carmichael-ca,-121.3249,38.662599,carmichael,ca
Carson Neighborhood Market,5602,424-233-3317,"20226 Avalon Blvd, Carson, CA 90746",https://www.walmart.com/store/5602-carson-ca,-118.2634,33.848386,carson,ca
Ceres Supercenter,1983,209-541-0253,"3960 Mitchell Rd, Ceres, CA 95307",https://www.walmart.com/store/1983-ceres-ca,-120.9399,37.582097,ceres,ca
Cerritos Supercenter,2082,562-924-1468,"12701 Towne Center Dr, Cerritos, CA 90703",https://www.walmart.com/store/2082-cerritos-ca,-118.0617,33.872491,cerritos,ca
Chico Store,2044,530-899-8760,"2044 Forest Ave, Chico, CA 95928",https://www.walmart.com/store/2044-chico-ca,-121.8049,39.723234,chico,ca
Chino Supercenter,3464,909-364-1968,"3943 Grand Ave, Chino, CA 91710",https://www.walmart.com/store/3464-chino-ca,-117.7192,33.995336,chino,ca
City Of Industry Supercenter,2251,626-854-1166,"17150 Gale Ave, City Of Industry, CA 91745",https://www.walmart.com/store/2251-city-of-industry-ca,-117.9323,33.998437,city,of
Clearlake Store,1979,707-994-6881,"15960 Dam Rd, Clearlake, CA 95422",https://www.walmart.com/store/1979-clearlake-ca,-122.6163,38.931599,clearlake,ca
Coachella Neighborhood Market,2826,760-262-8050,"83053 Avenue 48, Coachella, CA 92236",https://www.walmart.com/store/2826-coachella-ca,-116.2152,33.698861,coachella,ca
Colton Supercenter,1692,909-783-0497,"1120 S Mount Vernon Ave, Colton, CA 92324",https://www.walmart.com/store/1692-colton-ca,-117.3062,34.050112,colton,ca
Compton Supercenter,5807,562-295-3870,"2100 N Long Beach Blvd, Compton, CA 90221",https://www.walmart.com/store/5807-compton-ca,-118.2081,33.910022,compton,ca
Covina Supercenter,2292,626-339-4161,"1275 N Azusa Ave, Covina, CA 91722",https://www.walmart.com/store/2292-covina-ca,-117.9096,34.102622,covina,ca
Crescent City Supercenter,1910,707-464-1198,"900 E Washington Blvd, Crescent City, CA 95531",https://www.walmart.com/store/1910-crescent-city-ca,-124.1898,41.774813,crescent,city
Delano Supercenter,5215,661-370-4061,"530 Woollomes Ave, Delano, CA 93215",https://www.walmart.com/store/5215-delano-ca,-119.2480,35.743983,delano,ca
Diamond Bar Neighborhood Market,4762,909-378-4055,"1180 S Diamond Bar Blvd, Diamond Bar, CA 91765",https://www.walmart.com/store/4762-diamond-bar-ca,-117.8093,34.001125,diamond,bar
Dinuba Supercenter,5394,559-591-0380,"770 W El Monte Way, Dinuba, CA 93618",https://www.walmart.com/store/5394-dinuba-ca,-119.4023,36.543418,dinuba,ca
Dixon Supercenter,5139,707-693-6505,"235 E Dorset Dr, Dixon, CA 95620",https://www.walmart.com/store/5139-dixon-ca,-121.8203,38.471927,dixon,ca
Duarte Store,2401,626-359-7708,"1600 Mountain Ave, Duarte, CA 91010",https://www.walmart.com/store/2401-duarte-ca,-117.9838,34.134035,duarte,ca
El Centro Supercenter,1555,760-337-1600,"2150 N Waterman Ave, El Centro, CA 92243",https://www.walmart.com/store/1555-el-centro-ca,-115.5773,32.813411,el,centro
Encinitas Supercenter,5886,760-704-0243,"1550 Leucadia Blvd, Encinitas, CA 92024",https://www.walmart.com/store/5886-encinitas-ca,-117.2664,33.069254,encinitas,ca
Eureka Store,5629,707-832-5269,"3300 Broadway Bayshore Mall, Eureka, CA 95501",https://www.walmart.com/store/5629-eureka-ca,-124.1905,40.780727,eureka,ca
Fairfield Supercenter,2048,707-428-4792,"2701 N Texas St, Fairfield, CA 94533",https://www.walmart.com/store/2048-fairfield-ca,-122.0352,38.279081,fairfield,ca
Folsom Supercenter,1760,916-983-1090,"1018 Riley St, Folsom, CA 95630",https://www.walmart.com/store/1760-folsom-ca,-121.1676,38.668326,folsom,ca
Fontana Store,1756,909-355-6922,"17251 Foothill Blvd, Fontana, CA 92335",https://www.walmart.com/store/1756-fontana-ca,-117.4281,34.105588,fontana,ca
Foothill Ranch Supercenter,2218,949-588-7923,"26502 Towne Centre Dr, Foothill Ranch, CA 92610",https://www.walmart.com/store/2218-foothill-ranch-ca,-117.6710,33.679623,foothill,ranch
Galt Supercenter,5231,209-744-1938,"10470 Twin Cities Rd, Galt, CA 95632",https://www.walmart.com/store/5231-galt-ca,-121.3046,38.289693,galt,ca
Gilroy Supercenter,2002,408-848-8161,"7150 Camino Arroyo, Gilroy, CA 95020",https://www.walmart.com/store/2002-gilroy-ca,-121.5512,37.008613,gilroy,ca
Glendora Supercenter,1941,909-592-4866,"1950 Auto Center Drive, Glendora, CA 91740",https://www.walmart.com/store/1941-glendora-ca,-117.8259,34.116482,glendora,ca
,5980,,,https://www.walmart.com/store/5980-granite-bay-ca,"{""props"":","{""props"":",granite,bay
Hanford Supercenter,1645,559-583-6292,"250 S 12th Ave, Hanford, CA 93230",https://www.walmart.com/store/1645-hanford-ca,-119.6761,36.321735,hanford,ca
Hawthorne Neighborhood Market,5604,424-336-2212,"14441 Inglewood Ave, Hawthorne, CA 90250",https://www.walmart.com/store/5604-hawthorne-ca,-118.3624,33.900207,hawthorne,ca
Hesperia Supercenter,4340,760-948-4851,"13401 Main St, Hesperia, CA 92345",https://www.walmart.com/store/4340-hesperia-ca,-117.3700,34.424217,hesperia,ca
Highland Supercenter,1914,909-425-8846,"4210 Highland Ave, Highland, CA 92346",https://www.walmart.com/store/1914-highland-ca,-117.1948,34.137744,highland,ca
Jackson Store,2054,209-223-5384,"10355 Wicklow Way, Jackson, CA 95642",https://www.walmart.com/store/2054-jackson-ca,-120.8061,38.357933,jackson,ca
Jurupa Valley Neighborhood Market,5663,951-968-7218,"8844 Limonite Ave, Jurupa Valley, CA 92509",https://www.walmart.com/store/5663-jurupa-valley-ca,-117.4768,33.974268,jurupa,valley
Kerman Supercenter,5701,559-846-1200,"14061 W. Whitesbridge Avenue, Kerman, CA 93630",https://www.walmart.com/store/5701-kerman-ca,-120.0441,36.732679,kerman,ca
La Mirada Neighborhood Market,5661,562-567-6488,"14865 Telegraph Road, La Mirada, CA 90638",https://www.walmart.com/store/5661-la-mirada-ca,-118.0135,33.918651,la,mirada
La Palma Neighborhood Market,3099,714-822-3152,"5420 La Palma Ave, La Palma, CA 90623",https://www.walmart.com/store/3099-la-palma-ca,-118.0387,33.845716,la,palma
La Puente Neighborhood Market,3133,626-251-1877,"1425 N Hacienda Blvd, La Puente, CA 91744",https://www.walmart.com/store/3133-la-puente-ca,-117.9498,34.047167,la,puente
La Quinta Supercenter,1805,760-564-3313,"79295 Us Hwy 111, La Quinta, CA 92253",https://www.walmart.com/store/1805-la-quinta-ca,-116.2811,33.703676,la,quinta
Laguna Niguel Store,2206,949-360-0758,"27470 Alicia Pkwy, Laguna Niguel, CA 92677",https://www.walmart.com/store/2206-laguna-niguel-ca,-117.7130,33.563536,laguna,niguel
Lake Elsinore Supercenter,2077,951-245-5990,"29260 Central Ave, Lake Elsinore, CA 92532",https://www.walmart.com/store/2077-lake-elsinore-ca,-117.3323,33.693058,lake,elsinore
Lakewood Supercenter,2609,562-429-6239,"2770 Carson St, Lakewood, CA 90712",https://www.walmart.com/store/2609-lakewood-ca,-118.1586,33.830375,lakewood,ca
Lincoln Neighborhood Market,5979,916-209-5129,"255 Lincoln Blvd, Lincoln, CA 95648",https://www.walmart.com/store/5979-lincoln-ca,-121.2919,38.888618,lincoln,ca
Livermore Store,1972,925-455-0215,"2700 Las Positas Rd, Livermore, CA 94551",https://www.walmart.com/store/1972-livermore-ca,-121.7680,37.699303,livermore,ca
Lodi Supercenter,1789,209-368-6696,"1601 S Lower Sacramento Rd, Lodi, CA 95242",https://www.walmart.com/store/1789-lodi-ca,-121.3098,38.113154,lodi,ca
Loma Linda Neighborhood Market,2998,909-283-7239,"25755 Barton Rd, Loma Linda, CA 92354",https://www.walmart.com/store/2998-loma-linda-ca,-117.2422,34.047122,loma,linda
Lompoc Supercenter,1989,805-735-9088,"701 W Central Ave, Lompoc, CA 93436",https://www.walmart.com/store/1989-lompoc-ca,-120.4652,34.662905,lompoc,ca
Los Banos Supercenter,2117,209-826-9655,"1575 West Pacheco Blvd, Los Banos, CA 93635",https://www.walmart.com/store/2117-los-banos-ca,-120.8790,37.053971,los,banos
Madera Store,1583,559-675-9212,"1977 W Cleveland Ave, Madera, CA 93637",https://www.walmart.com/store/1583-madera-ca,-120.0806,36.975625,madera,ca
Manteca Supercenter,1840,209-824-2000,"1205 S Main St, Manteca, CA 95337",https://www.walmart.com/store/1840-manteca-ca,-121.2184,37.785574,manteca,ca
Marina Supercenter,4488,831-883-9138,"150 Beach Rd, Marina, CA 93933",https://www.walmart.com/store/4488-marina-ca,-121.8011,36.693188,marina,ca
Martinez Store,3493,925-313-5716,"1021 Arnold Dr, Martinez, CA 94553",https://www.walmart.com/store/3493-martinez-ca,-122.1094,37.996909,martinez,ca
Marysville Supercenter,5136,530-634-9751,"1131 N Beale Rd, Marysville, CA 95901",https://www.walmart.com/store/5136-marysville-ca,-121.5742,39.127225,marysville,ca
Merced Store,2039,209-384-1275,"3055 Loughborough Dr, Merced, CA 95348",https://www.walmart.com/store/2039-merced-ca,-120.5020,37.318005,merced,ca
Milpitas Supercenter,2119,408-934-0304,"301 Ranch Dr, Milpitas, CA 95035",https://www.walmart.com/store/2119-milpitas-ca,-121.9211,37.431471,milpitas,ca
Moreno Valley Supercenter,5193,951-242-1185,"12721 Moreno Beach Dr, Moreno Valley, CA 92555",https://www.walmart.com/store/5193-moreno-valley-ca,-117.1818,33.935827,moreno,valley
Morgan Hill Supercenter,5766,408-779-8172,"170 Cochrane Plz, Morgan Hill, CA 95037",https://www.walmart.com/store/5766-morgan-hill-ca,-121.6551,37.149211,morgan,hill
Mountain View Store,2280,650-917-0796,"600 Showers Dr, Mountain View, CA 94040",https://www.walmart.com/store/2280-mountain-view-ca,-122.1097,37.400846,mountain,view
Murrieta Store,2952,951-696-7135,"41200 Murrieta Hot Springs Rd, Murrieta, CA 92562",https://www.walmart.com/store/2952-murrieta-ca,-117.1926,33.552575,murrieta,ca
Napa Supercenter,2925,707-224-8797,"681 Lincoln Ave, Napa, CA 94558",https://www.walmart.com/store/2925-napa-ca,-122.2833,38.309024,napa,ca
National City Supercenter,5023,619-336-0395,"1200 Highland Ave, National City, CA 91950",https://www.walmart.com/store/5023-national-city-ca,-117.0993,32.674772,national,city
North Highlands Supercenter,4393,916-621-1454,"4675 Watt Ave, North Highlands, CA 95660",https://www.walmart.com/store/4393-north-highlands-ca,-121.3863,38.649823,north,highlands
Ontario Supercenter,3796,909-321-3165,"1333 N Mountain Ave, Ontario, CA 91762",https://www.walmart.com/store/3796-ontario-ca,-117.6724,34.082625,ontario,ca
Orange Store,2546,714-998-4473,"2300 N Tustin St, Orange, CA 92865",https://www.walmart.com/store/2546-orange-ca,-117.8385,33.828035,orange,ca
Orangevale Supercenter,4309,916-989-5800,"8961 Greenback Ln, Orangevale, CA 95662",https://www.walmart.com/store/4309-orangevale-ca,-121.2225,38.679381,orangevale,ca
Oroville Supercenter,1575,530-534-1082,"465 Cal Oak Rd, Oroville, CA 95965",https://www.walmart.com/store/1575-oroville-ca,-121.5713,39.490699,oroville,ca
Palm Springs Supercenter,1832,760-322-3906,"5601 E Ramon Rd, Palm Springs, CA 92264",https://www.walmart.com/store/1832-palm-springs-ca,-116.4870,33.813101,palm,springs
Paramount Supercenter,2110,562-531-8240,"14501 Lakewood Blvd, Paramount, CA 90723",https://www.walmart.com/store/2110-paramount-ca,-118.1453,33.902464,paramount,ca
Paso Robles Store,2099,805-238-1212,"180 Niblick Rd, Paso Robles, CA 93446",https://www.walmart.com/store/2099-paso-robles-ca,-120.6817,35.612465,paso,robles
Patterson Supercenter,5843,209-895-4407,"1030 Sperry Ave, Patterson, CA 95363",https://www.walmart.com/store/5843-patterson-ca,-121.1427,37.462266,patterson,ca
Perris Supercenter,1747,951-940-0440,"1800 N Perris Blvd, Perris, CA 92571",https://www.walmart.com/store/1747-perris-ca,-117.2294,33.806189,perris,ca
Pico Rivera Supercenter,2886,562-801-2413,"8500 Washington Blvd, Pico Rivera, CA 90660",https://www.walmart.com/store/2886-pico-rivera-ca,-118.1050,33.985053,pico,rivera
Pittsburg Store,1615,925-427-2022,"2203 Loveridge Rd, Pittsburg, CA 94565",https://www.walmart.com/store/1615-pittsburg-ca,-121.8681,38.009048,pittsburg,ca
Placerville Store,2418,530-621-2917,"4300 Missouri Flat Rd, Placerville, CA 95667",https://www.walmart.com/store/2418-placerville-ca,-120.8289,38.704034,placerville,ca
Porter Ranch Supercenter,2526,818-832-0643,"19821 Rinaldi St, Porter Ranch, CA 91326",https://www.walmart.com/store/2526-porter-ranch-ca,-118.5669,34.277643,porter,ranch
Porterville Store,1877,559-783-8195,"1250 W Henderson Ave, Porterville, CA 93257",https://www.walmart.com/store/1877-porterville-ca,-119.0453,36.083402,porterville,ca
Poway Supercenter,1700,858-486-1882,"13425 Community Rd, Poway, CA 92064",https://www.walmart.com/store/1700-poway-ca,-117.0376,32.959024,poway,ca
Rancho Cordova Supercenter,2457,916-361-0296,"10655 Folsom Blvd, Rancho Cordova, CA 95670",https://www.walmart.com/store/2457-rancho-cordova-ca,-121.2918,38.596132,rancho,cordova
Rancho Cucamonga Store,1922,909-899-1441,"12549 Foothill Blvd, Rancho Cucamonga, CA 91739",https://www.walmart.com/store/1922-rancho-cucamonga-ca,-117.5314,34.103491,rancho,cucamonga
Rancho Santa Margarita Neighborhood Market,5600,949-207-5070,"30491 Avenida De Las Flores, Rancho Santa Margarita, CA 92688",https://www.walmart.com/store/5600-rancho-santa-margarita-ca,-117.6014,33.640803,rancho,santa
Red Bluff Supercenter,1608,530-529-5540,"608 Luther Road, Red Bluff, CA 96080",https://www.walmart.com/store/1608-red-bluff-ca,-122.2344,40.162853,red,bluff
Redding Supercenter,2537,530-221-2800,"1515 Dana Dr, Redding, CA 96003",https://www.walmart.com/store/2537-redding-ca,-122.3432,40.583947,redding,ca
Redlands Store,1693,909-798-9114,"2050 W Redlands Blvd, Redlands, CA 92373",https://www.walmart.com/store/1693-redlands-ca,-117.2229,34.065069,redlands,ca
Richmond Store,3455,510-669-1342,"1400 Hilltop Mall Rd, Richmond, CA 94806",https://www.walmart.com/store/3455-richmond-ca,-122.3283,37.979871,richmond,ca
Ridgecrest Supercenter,1600,760-371-4974,"201 E Bowman Rd, Ridgecrest, CA 93555",https://www.walmart.com/store/1600-ridgecrest-ca,-117.6671,35.606702,ridgecrest,ca
Rosemead Supercenter,5154,626-307-1010,"1827 Walnut Grove Ave, Rosemead, CA 91770",https://www.walmart.com/store/5154-rosemead-ca,-118.0854,34.050394,rosemead,ca
San Bernardino Store,3276,909-880-4038,"4001 Hallmark Pkwy, San Bernardino, CA 92407",https://www.walmart.com/store/3276-san-bernardino-ca,-117.3360,34.165575,san,bernardino
San Clemente Store,2527,949-498-6669,"951 Avenida Pico, San Clemente, CA 92673",https://www.walmart.com/store/2527-san-clemente-ca,-117.6062,33.455696,san,clemente
San Jacinto Supercenter,5425,951-487-1492,"1861 S San Jacinto Ave, San Jacinto, CA 92583",https://www.walmart.com/store/5425-san-jacinto-ca,-116.9555,33.767907,san,jacinto
San Marcos Store,3494,760-233-8009,"732 Center Dr, San Marcos, CA 92069",https://www.walmart.com/store/3494-san-marcos-ca,-117.1234,33.135681,san,marcos
San Ramon Neighborhood Market,5610,925-364-9207,"9100 Alcosta Blvd, San Ramon, CA 94583",https://www.walmart.com/store/5610-san-ramon-ca,-121.9291,37.729313,san,ramon
Sanger Supercenter,4238,559-875-4268,"2761 Jensen Ave, Sanger, CA 93657",https://www.walmart.com/store/4238-sanger-ca,-119.5776,36.705621,sanger,ca
Santa Ana Supercenter,2517,714-775-1804,"3600 W Mcfadden Ave, Santa Ana, CA 92704",https://www.walmart.com/store/2517-santa-ana-ca,-117.9153,33.737285,santa,ana
Santa Clara Neighborhood Market,3123,408-961-3599,"3255 Mission College Blvd, Santa Clara, CA 95054",https://www.walmart.com/store/3123-santa-clara-ca,-121.9855,37.390061,santa,clara
Santa Fe Springs Supercenter,2948,562-946-6343,"13310 Telegraph Rd, Santa Fe Springs, CA 90670",https://www.walmart.com/store/2948-santa-fe-springs-ca,-118.0498,33.940696,santa,fe
Santee Store,1917,619-449-7900,"170 Town Center Parkway, Santee, CA 92071",https://www.walmart.com/store/1917-santee-ca,-116.9903,32.842306,santee,ca
Selma Supercenter,1882,559-891-7190,"3400 Floral Ave, Selma, CA 93662",https://www.walmart.com/store/1882-selma-ca,-119.6343,36.577355,selma,ca
Sonora Supercenter,2030,209-533-2617,"1101 Sanguinetti Road, Sonora, CA 95370",https://www.walmart.com/store/2030-sonora-ca,-120.3658,37.971691,sonora,ca
South Gate Supercenter,3180,323-282-4800,"4651 Firestone Blvd, South Gate, CA 90280",https://www.walmart.com/store/3180-south-gate-ca,-118.1875,33.954838,south,gate
Stanton Neighborhood Market,4134,714-230-0126,"12840 Beach Blvd, Stanton, CA 90680",https://www.walmart.com/store/4134-stanton-ca,-117.9910,33.774973,stanton,ca
Stevenson Ranch Store,2297,661-253-1911,"25450 The Old Rd, Stevenson Ranch, CA 91381",https://www.walmart.com/store/2297-stevenson-ranch-ca,-118.5691,34.383444,stevenson,ranch
Suisun City Supercenter,3708,707-639-4980,"350 Walters Rd, Suisun City, CA 94585",https://www.walmart.com/store/3708-suisun-city-ca,-121.9901,38.242621,suisun,city
Susanville Store,1616,530-251-2000,"2900 Main St, Susanville, CA 96130",https://www.walmart.com/store/1616-susanville-ca,-120.6375,40.409033,susanville,ca
Tehachapi Supercenter,4317,661-825-2258,"400 Tucker Rd, Tehachapi, CA 93561",https://www.walmart.com/store/4317-tehachapi-ca,-118.4657,35.129514,tehachapi,ca
Temecula Supercenter,2708,951-506-7613,"32225 Temecula Pkwy, Temecula, CA 92592",https://www.walmart.com/store/2708-temecula-ca,-117.0945,33.480143,temecula,ca
Thousand Oaks Neighborhood Market,3179,805-262-3406,"512 N Ventu Park Rd, Thousand Oaks, CA 91320",https://www.walmart.com/store/3179-thousand-oaks-ca,-118.9090,34.186294,thousand,oaks
Tracy Supercenter,2025,209-836-5786,"3010 W Grant Line Rd, Tracy, CA 95304",https://www.walmart.com/store/2025-tracy-ca,-121.4717,37.751659,tracy,ca
Tulare Store,2536,559-684-1300,"1110 E Prosperity Ave, Tulare, CA 93274",https://www.walmart.com/store/2536-tulare-ca,-119.3290,36.228597,tulare,ca
Ukiah Store,2052,707-468-0258,"1155 Airport Park Blvd, Ukiah, CA 95482",https://www.walmart.com/store/2052-ukiah-ca,-123.1969,39.133714,ukiah,ca
Union City Store,2031,510-475-5915,"30600 Dyer St, Union City, CA 94587",https://www.walmart.com/store/2031-union-city-ca,-122.0673,37.604715,union,city
Vallejo Neighborhood Market,5609,707-653-1058,"501 Sereno Dr, Vallejo, CA 94589",https://www.walmart.com/store/5609-vallejo-ca,-122.2543,38.126511,vallejo,ca
Ventura Store,3650,805-665-5560,"1739 S Victoria Ave, Ventura, CA 93003",https://www.walmart.com/store/3650-ventura-ca,-119.2129,34.258212,ventura,ca
Vista Supercenter,2094,760-945-7995,"1800 University Dr, Vista, CA 92083",https://www.walmart.com/store/2094-vista-ca,-117.2166,33.172662,vista,ca
Wasco Supercenter,5859,661-772-8061,"401 N Central Ave, Wasco, CA 93280",https://www.walmart.com/store/5859-wasco-ca,-119.3593,35.604033,wasco,ca
,5954,,,https://www.walmart.com/store/5954-west-covina-ca,"{""props"":","{""props"":",west,covina
West Hills Store,5152,818-719-8602,"6433 Fallbrook Ave, West Hills, CA 91307",https://www.walmart.com/store/5152-west-hills-ca,-118.6252,34.188122,west,hills
West Sacramento Supercenter,3652,916-373-2200,"755 Riverpoint Ct, West Sacramento, CA 95605",https://www.walmart.com/store/3652-west-sacramento-ca,-121.5500,38.587362,west,sacramento
Westminster Store,2495,714-799-0020,"13331 Beach Blvd, Westminster, CA 92683",https://www.walmart.com/store/2495-westminster-ca,-117.9935,33.767643,westminster,ca
Willows Supercenter,2053,530-934-2054,"470 N Airport Rd, Willows, CA 95988",https://www.walmart.com/store/2053-willows-ca,-122.2176,39.525844,willows,ca
Windsor Store,2553,707-836-7200,"6650 Hembree Ln, Windsor, CA 95492",https://www.walmart.com/store/2553-windsor-ca,-122.7900,38.528764,windsor,ca
Yreka Supercenter,1630,530-842-7330,"1906 Fort Jones Rd, Yreka, CA 96097",https://www.walmart.com/store/1630-yreka-ca,-122.6445,41.698563,yreka,ca
Yuba City Supercenter,1903,530-751-0130,"1150 Harter Rd, Yuba City, CA 95993",https://www.walmart.com/store/1903-yuba-city-ca,-121.6540,39.144742,yuba,city
Yucca Valley Supercenter,1915,760-365-7750,"58501 29 Palms Hwy, Yucca Valley, CA 92284",https://www.walmart.com/store/1915-yucca-valley-ca,-116.3843,34.132285,yucca,valley
Alamosa Supercenter,869,719-589-9071,"3333 Clark St, Alamosa, CO 81101",https://www.walmart.com/store/869-alamosa-co,-105.9040,37.482248,alamosa,co
Arvada Supercenter,4734,720-624-0346,"9400 Ralston Road, Arvada, CO 80002",https://www.walmart.com/store/4734-arvada-co,-105.1039,39.800682,arvada,co
Avon Supercenter,1199,970-949-6442,"171 Yoder Ave, Avon, CO 81620",https://www.walmart.com/store/1199-avon-co,-106.5002,39.628058,avon,co
Canon City Supercenter,1019,719-275-2375,"3105 E Us Highway 50, Canon City, CO 81212",https://www.walmart.com/store/1019-canon-city-co,-105.1914,38.448662,canon,city
Castle Rock Supercenter,984,303-688-8200,"133 Sam Walton Lane, Castle Rock, CO 80104",https://www.walmart.com/store/984-castle-rock-co,-104.8608,39.406281,castle,rock
Commerce City Supercenter,2752,303-287-0600,"5990 Dahlia St, Commerce City, CO 80022",https://www.walmart.com/store/2752-commerce-city-co,-104.9281,39.804558,commerce,city
Cortez Supercenter,966,970-565-6138,"1835 E Main St, Cortez, CO 81321",https://www.walmart.com/store/966-cortez-co,-108.5619,37.346568,cortez,co
Craig Supercenter,4377,970-824-0340,"2000 W Victory Way, Craig, CO 81625",https://www.walmart.com/store/4377-craig-co,-107.5695,40.511514,craig,co
Delta Supercenter,5458,970-874-1585,"37 Stafford Ln, Delta, CO 81416",https://www.walmart.com/store/5458-delta-co,-108.0541,38.749201,delta,co
Durango Supercenter,2270,970-259-8755,"1155 S Camino Del Rio, Durango, CO 81303",https://www.walmart.com/store/2270-durango-co,-107.8657,37.229957,durango,co
Elizabeth Supercenter,4639,303-646-2599,"2100 Legacy Cir, Elizabeth, CO 80107",https://www.walmart.com/store/4639-elizabeth-co,-104.6235,39.360452,elizabeth,co
Englewood Supercenter,2751,303-789-7201,"601 Englewood Pkwy, Englewood, CO 80110",https://www.walmart.com/store/2751-englewood-co,-104.9947,39.656138,englewood,co
Evergreen Supercenter,2293,303-526-1649,"952 Swede Gulch Rd, Evergreen, CO 80439",https://www.walmart.com/store/2293-evergreen-co,-105.3271,39.701077,evergreen,co
Falcon Supercenter,4335,719-522-2910,"11550 Meridian Market Vw, Falcon, CO 80831",https://www.walmart.com/store/4335-falcon-co,-104.6129,38.939226,falcon,co
,,,,https://www.walmart.com/store,,,,
Frisco Store,986,970-668-3959,"840 Summit Blvd, Frisco, CO 80443",https://www.walmart.com/store/986-frisco-co,-106.0961,39.586793,frisco,co
Glenwood Springs Store,1095,970-945-5336,"3010 Blake Ave, Glenwood Springs, CO 81601",https://www.walmart.com/store/1095-glenwood-springs-co,-107.3198,39.521965,glenwood,springs
Gunnison Store,1550,970-641-1733,"900 N Main St, Gunnison, CO 81230",https://www.walmart.com/store/1550-gunnison-co,-106.9254,38.554562,gunnison,co
Highlands Ranch Supercenter,1252,303-683-3641,"6675 Business Center Dr, Highlands Ranch, CO 80130",https://www.walmart.com/store/1252-highlands-ranch-co,-104.9107,39.562394,highlands,ranch
La Junta Supercenter,1384,719-384-5951,"6 Conley Rd, La Junta, CO 81050",https://www.walmart.com/store/1384-la-junta-co,-103.5932,37.998201,la,junta
Lafayette Supercenter,1045,303-666-0340,"745 Us Highway 287, Lafayette, CO 80026",https://www.walmart.com/store/1045-lafayette-co,-105.1051,40.005992,lafayette,co
Lakeside Supercenter,5957,303-222-4455,"5957 W 44th Ave, Lakeside, CO 80212",https://www.walmart.com/store/5957-lakeside-co,-105.0612,39.779228,lakeside,co
Lamar Supercenter,2672,719-336-0530,"1432 E Olive St, Lamar, CO 81052",https://www.walmart.com/store/2672-lamar-co,-102.6020,38.086806,lamar,co
Montrose Supercenter,1058,970-249-7544,"16750 S Townsend Ave, Montrose, CO 81401",https://www.walmart.com/store/1058-montrose-co,-107.8633,38.449068,montrose,co
Monument Supercenter,3227,719-484-0912,"16218 Jackson Creek Pkwy, Monument, CO 80132",https://www.walmart.com/store/3227-monument-co,-104.8538,39.067037,monument,co
Northglenn Neighborhood Market,4747,303-200-1490,"10755 Washington Street, Northglenn, CO 80233",https://www.walmart.com/store/4747-northglenn-co,-104.9791,39.891602,northglenn,co
Pagosa Springs Supercenter,5003,970-731-9001,"211 Aspen Village Dr, Pagosa Springs, CO 81147",https://www.walmart.com/store/5003-pagosa-springs-co,-107.0632,37.259683,pagosa,springs
Parker Supercenter,2892,303-805-0029,"11101 S Parker Rd, Parker, CO 80134",https://www.walmart.com/store/2892-parker-co,-104.7683,39.513865,parker,co
Pueblo West Supercenter,3382,719-647-9861,"78 N Mcculloch Blvd, Pueblo West, CO 81007",https://www.walmart.com/store/3382-pueblo-west-co,-104.7400,38.336421,pueblo,west
Rifle Supercenter,5232,970-625-5367,"1000 Airport Rd, Rifle, CO 81650",https://www.walmart.com/store/5232-rifle-co,-107.7679,39.524841,rifle,co
Salida Supercenter,921,719-539-3566,"7865 W Us Highway 50, Salida, CO 81201",https://www.walmart.com/store/921-salida-co,-106.0226,38.524558,salida,co
Steamboat Springs Store,1808,970-879-8115,"1805 Central Park Drive, Steamboat Springs, CO 80487",https://www.walmart.com/store/1808-steamboat-springs-co,-106.8233,40.461968,steamboat,springs
Sterling Supercenter,924,970-522-0600,"1510 W Main St, Sterling, CO 80751",https://www.walmart.com/store/924-sterling-co,-103.2363,40.627049,sterling,co
Timnath Supercenter,4599,970-484-0328,"4500 Weitzel St, Timnath, CO 80547",https://www.walmart.com/store/4599-timnath-co,-104.9904,40.526623,timnath,co
Trinidad Supercenter,962,719-846-4477,"2921 Toupal Dr, Trinidad, CO 81082",https://www.walmart.com/store/962-trinidad-co,-104.5232,37.138728,trinidad,co
Woodland Park Supercenter,3805,719-687-1065,"19600 E Us Highway 24, Woodland Park, CO 80863",https://www.walmart.com/store/3805-woodland-park-co,-105.0386,38.970532,woodland,park
Avon Store,2899,860-409-0404,"255 W Main St, Avon, CT 06001",https://www.walmart.com/store/2899-avon-ct,-72.85376,41.810565,avon,ct
Branford Store,2232,203-488-4106,"120 Commercial Pkwy, Branford, CT 06405",https://www.walmart.com/store/2232-branford-ct,-72.83080,41.281404,branford,ct
Bristol Store,2719,860-585-1700,"1400 Farmington Ave, Bristol, CT 06010",https://www.walmart.com/store/2719-bristol-ct,-72.89757,41.697633,bristol,ct
Brooklyn Supercenter,5777,860-412-5137,"450 Providence Road, Brooklyn, CT 06234",https://www.walmart.com/store/5777-brooklyn-ct,-71.91337,41.799019,brooklyn,ct
Cromwell Supercenter,2299,860-635-0458,"161 Berlin Rd, Cromwell, CT 06416",https://www.walmart.com/store/2299-cromwell-ct,-72.71187,41.605452,cromwell,ct
Danbury Store,3543,203-791-1929,"67 Newtown Rd, Danbury, CT 06810",https://www.walmart.com/store/3543-danbury-ct,-73.41294,41.407976,danbury,ct
East Windsor Supercenter,2282,860-292-1235,"44 Prospect Hill Road, East Windsor, CT 06088",https://www.walmart.com/store/2282-east-windsor-ct,-72.60671,41.919366,east,windsor
Groton Store,2200,860-448-2022,"150 Gold Star Hwy, Groton, CT 06340",https://www.walmart.com/store/2200-groton-ct,-72.06495,41.369862,groton,ct
,3544,,,https://www.walmart.com/store/3544-guilford-ct,"{""props"":","{""props"":",guilford,ct
Hamden Store,3545,203-230-0285,"2300 Dixwell Ave, Hamden, CT 06514",https://www.walmart.com/store/3545-hamden-ct,-72.91895,41.373776,hamden,ct
Hartford Supercenter,5095,860-953-0040,"495 Flatbush Avenue, Hartford, CT 06106",https://www.walmart.com/store/5095-hartford-ct,-72.71355,41.739808,hartford,ct
Lisbon Supercenter,2854,860-376-3254,"180 River Rd, Lisbon, CT 06351",https://www.walmart.com/store/2854-lisbon-ct,-71.98949,41.583495,lisbon,ct
Manchester Supercenter,1891,860-644-5100,"420 Buckland Hills Dr, Manchester, CT 06042",https://www.walmart.com/store/1891-manchester-ct,-72.53764,41.806617,manchester,ct
Milford Store,5294,203-301-0559,"1365 Boston Post Rd, Milford, CT 06460",https://www.walmart.com/store/5294-milford-ct,-73.03147,41.238029,milford,ct
Naugatuck Supercenter,2284,203-729-9100,"1100 New Haven Rd, Naugatuck, CT 06770",https://www.walmart.com/store/2284-naugatuck-ct,-73.02800,41.470601,naugatuck,ct
New Haven Supercenter,5439,203-467-7509,"315 Foxon Blvd, New Haven, CT 06513",https://www.walmart.com/store/5439-new-haven-ct,-72.87692,41.320072,new,haven
New Milford Store,3546,860-350-4823,"164 Danbury Rd, New Milford, CT 06776",https://www.walmart.com/store/3546-new-milford-ct,-73.41976,41.552019,new,milford
Newington Store,2965,860-667-7657,"3164 Berlin Tpke, Newington, CT 06111",https://www.walmart.com/store/2965-newington-ct,-72.71837,41.663123,newington,ct
North Windham Supercenter,2022,860-456-4399,"474 Boston Post Rd, North Windham, CT 06256",https://www.walmart.com/store/2022-north-windham-ct,-72.17402,41.740984,north,windham
Norwich Store,2170,860-889-7745,"220 Salem Tpke, Norwich, CT 06360",https://www.walmart.com/store/2170-norwich-ct,-72.12258,41.504713,norwich,ct
Old Saybrook Store,2898,860-388-0584,"665 Boston Post Rd, Old Saybrook, CT 06475",https://www.walmart.com/store/2898-old-saybrook-ct,-72.38159,41.297301,old,saybrook
Putnam Supercenter,1980,860-928-3999,"625 School St, Putnam, CT 06260",https://www.walmart.com/store/1980-putnam-ct,-71.88925,41.923379,putnam,ct
Rocky Hill Store,2900,860-563-4355,"80 Town Line Rd, Rocky Hill, CT 06067",https://www.walmart.com/store/2900-rocky-hill-ct,-72.65724,41.679678,rocky,hill
Shelton Store,2163,203-929-1110,"465 Bridgeport Ave, Shelton, CT 06484",https://www.walmart.com/store/2163-shelton-ct,-73.11294,41.291432,shelton,ct
Southington Store,2897,860-621-9540,"235 Queen St, Southington, CT 06489",https://www.walmart.com/store/2897-southington-ct,-72.86953,41.623078,southington,ct
Stratford Store,2585,203-502-7631,"150 Barnum Avenue Cutoff, Stratford, CT 06614",https://www.walmart.com/store/2585-stratford-ct,-73.11883,41.201415,stratford,ct
Torrington Store,2144,860-496-8653,"970 Torringford St, Torrington, CT 06790",https://www.walmart.com/store/2144-torrington-ct,-73.07800,41.818469,torrington,ct
Wallingford Supercenter,2371,203-269-6622,"844 N Colony Rd, Wallingford, CT 06492",https://www.walmart.com/store/2371-wallingford-ct,-72.81042,41.477488,wallingford,ct
Waterbury Store,3548,203-759-1000,"910 Wolcott St, Waterbury, CT 06705",https://www.walmart.com/store/3548-waterbury-ct,-73.00443,41.563321,waterbury,ct
Waterford Supercenter,2331,860-447-3646,"155 Waterford Parkway No., Waterford, CT 06385",https://www.walmart.com/store/2331-waterford-ct,-72.15506,41.370551,waterford,ct
West Haven Store,3803,203-931-2081,"515 Saw Mill Rd, West Haven, CT 06516",https://www.walmart.com/store/3803-west-haven-ct,-72.97751,41.270691,west,haven
Altamonte Springs Store,1374,407-774-9966,"200 S State Road 434, Altamonte Springs, FL 32714",https://www.walmart.com/store/1374-altamonte-springs-fl,-81.42113,28.659976,altamonte,springs
Arcadia Supercenter,811,863-993-1677,"2725 Se Highway 70, Arcadia, FL 34266",https://www.walmart.com/store/811-arcadia-fl,-81.82924,27.206626,arcadia,fl
Auburndale Supercenter,718,863-967-1164,"2120 Us Highway 92 W, Auburndale, FL 33823",https://www.walmart.com/store/718-auburndale-fl,-81.81598,28.060081,auburndale,fl
Avon Park Supercenter,3887,863-453-4177,"1041 Us Highway 27 N, Avon Park, FL 33825",https://www.walmart.com/store/3887-avon-park-fl,-81.51758,27.608819,avon,park
Bartow Supercenter,580,863-533-5400,"1050 E Van Fleet Dr, Bartow, FL 33830",https://www.walmart.com/store/580-bartow-fl,-81.83342,27.907053,bartow,fl
Boca Raton Supercenter,3858,561-226-3157,"22100 S State Road 7, Boca Raton, FL 33428",https://www.walmart.com/store/3858-boca-raton-fl,-80.20060,26.348257,boca,raton
Braden River Supercenter,528,941-753-6751,"2911 53rd Ave E, Braden River, FL 34203",https://www.walmart.com/store/528-braden-river-fl,-82.52733,27.449676,braden,river
Bushnell Supercenter,959,352-793-1300,"2163 W C 48, Bushnell, FL 33513",https://www.walmart.com/store/959-bushnell-fl,-82.13926,28.665821,bushnell,fl
Callaway Supercenter,1207,850-785-6011,"725 N Tyndall Pkwy, Callaway, FL 32404",https://www.walmart.com/store/1207-callaway-fl,-85.59325,30.161616,callaway,fl
Casselberry Supercenter,943,407-679-0377,"1239 State Road 436 Ste 101, Casselberry, FL 32707",https://www.walmart.com/store/943-casselberry-fl,-81.32339,28.635337,casselberry,fl
Chiefland Supercenter,1297,352-493-0758,"2201 N Young Blvd, Chiefland, FL 32626",https://www.walmart.com/store/1297-chiefland-fl,-82.86760,29.502214,chiefland,fl
Chipley Supercenter,2114,850-638-2243,"1621 Main St, Chipley, FL 32428",https://www.walmart.com/store/2114-chipley-fl,-85.54706,30.752617,chipley,fl
Clewiston Supercenter,2484,863-983-4844,"1005 W Sugarland Hwy, Clewiston, FL 33440",https://www.walmart.com/store/2484-clewiston-fl,-80.94879,26.756516,clewiston,fl
Cocoa Supercenter,174,321-639-1610,"2700 Clearlake Rd, Cocoa, FL 32922",https://www.walmart.com/store/174-cocoa-fl,-80.75313,28.395266,cocoa,fl
Coconut Creek Supercenter,1916,954-426-6101,"5571 W Hillsboro Blvd, Coconut Creek, FL 33073",https://www.walmart.com/store/1916-coconut-creek-fl,-80.20033,26.318721,coconut,creek
Cooper City Supercenter,1845,954-680-7810,"4700 S Flamingo Rd, Cooper City, FL 33330",https://www.walmart.com/store/1845-cooper-city-fl,-80.31061,26.062113,cooper,city
Crawfordville Supercenter,3307,850-926-1560,"35 Mike Stewart, Crawfordville, FL 32327",https://www.walmart.com/store/3307-crawfordville-fl,-84.36025,30.216862,crawfordville,fl
Crestview Supercenter,944,850-682-8001,"3351 S Ferdon Blvd, Crestview, FL 32536",https://www.walmart.com/store/944-crestview-fl,-86.56452,30.727818,crestview,fl
Dade City Store,713,352-567-1551,"12650 Us Highway 301, Dade City, FL 33525",https://www.walmart.com/store/713-dade-city-fl,-82.18561,28.342241,dade,city
Dania Beach Neighborhood Market,4563,954-988-5211,"401 E Sheridan St, Dania Beach, FL 33004",https://www.walmart.com/store/4563-dania-beach-fl,-80.13642,26.035061,dania,beach
Daytona Beach Supercenter,1391,386-760-7880,"1101 Beville Rd, Daytona Beach, FL 32119",https://www.walmart.com/store/1391-daytona-beach-fl,-81.02992,29.172605,daytona,beach
Defuniak Springs Supercenter,1134,850-892-3138,"1226 Freeport Hwy S, Defuniak Springs, FL 32435",https://www.walmart.com/store/1134-de-funiak-springs-fl,-86.12499,30.704504,de,funiak
Debary Neighborhood Market,3606,386-601-0037,"185 N Charles Richard Beall Blvd, Debary, FL 32713",https://www.walmart.com/store/3606-debary-fl,-81.30400,28.898809,debary,fl
Deerfield Beach Neighborhood Market,3104,954-281-1426,"1101 S Military Trl, Deerfield Beach, FL 33442",https://www.walmart.com/store/3104-deerfield-beach-fl,-80.13204,26.302965,deerfield,beach
Destin Supercenter,1362,850-650-0341,"15017 Emerald Coast Pkwy, Destin, FL 32541",https://www.walmart.com/store/1362-destin-fl,-86.44967,30.389579,destin,fl
Doral Supercenter,2091,305-470-4510,"8651 Nw 13th Ter, Doral, FL 33126",https://www.walmart.com/store/2091-doral-fl,-80.33533,25.787051,doral,fl
Dunedin Neighborhood Market,5876,727-431-0152,"2102 Main St, Dunedin, FL 34698",https://www.walmart.com/store/5876-dunedin-fl,-82.75047,28.020577,dunedin,fl
Dunnellon Supercenter,960,352-489-4210,"11012 No. Williams St, Dunnellon, FL 34432",https://www.walmart.com/store/960-dunnellon-fl,-82.45571,29.063309,dunnellon,fl
Englewood Supercenter,1874,941-475-9220,"2931 S Mccall Rd, Englewood, FL 34224",https://www.walmart.com/store/1874-englewood-fl,-82.31031,26.932272,englewood,fl
Estero Supercenter,5347,239-590-9501,"19975 S Tamiami Trl, Estero, FL 33928",https://www.walmart.com/store/5347-estero-fl,-81.81679,26.450965,estero,fl
Fernandina Beach Store,977,904-261-5306,"1385 Amelia Plz, Fernandina Beach, FL 32034",https://www.walmart.com/store/977-fernandina-beach-fl,-81.45620,30.647388,fernandina,beach
Florida City Supercenter,2727,305-242-4447,"33501 S Dixie Hwy, Florida City, FL 33034",https://www.walmart.com/store/2727-florida-city-fl,-80.47313,25.457623,florida,city
Fort Lauderdale Supercenter,2946,954-453-6538,"2500 W Broward Blvd, Fort Lauderdale, FL 33312",https://www.walmart.com/store/2946-fort-lauderdale-fl,-80.1753},"26.11905,",fort,lauderdale
Fort Myers Beach Supercenter,4063,239-340-7074,"17105 San Carlos Blvd, Fort Myers Beach, FL 33931",https://www.walmart.com/store/4063-fort-myers-beach-fl,-81.94044,26.491939,fort,myers
Fort Pierce Supercenter,973,772-468-0880,"5100 Okeechobee Rd, Fort Pierce, FL 34947",https://www.walmart.com/store/973-fort-pierce-fl,-80.37791,27.421425,fort,pierce
Fort Walton Beach Supercenter,919,850-862-0700,"748 Beal Pkwy Nw, Fort Walton Beach, FL 32547",https://www.walmart.com/store/919-fort-walton-beach-fl,-86.64148,30.440877,fort,walton
Fruit Cove Neighborhood Market,5819,904-417-9085,"445 State Road 13, Fruit Cove, FL 32259",https://www.walmart.com/store/5819-fruit-cove-fl,-81.62393,30.119729,fruit,cove
Gibsonton Supercenter,5300,813-672-0739,"9205 Gibsonton Dr, Gibsonton, FL 33534",https://www.walmart.com/store/5300-gibsonton-fl,-82.35436,27.847304,gibsonton,fl
Haines City Supercenter,725,863-422-7537,"36205 Us Highway 27, Haines City, FL 33844",https://www.walmart.com/store/725-haines-city-fl,-81.63685,28.126013,haines,city
Hallandale Beach Supercenter,1996,954-455-4700,"2551 E Hallandale Beach Blvd, Hallandale Beach, FL 33009",https://www.walmart.com/store/1996-hallandale-beach-fl,-80.12389,25.987841,hallandale,beach
Hialeah Gardens Neighborhood Market,5615,305-913-1168,"11800 Hialeah Gardens Blvd, Hialeah Gardens, FL 33018",https://www.walmart.com/store/5615-hialeah-gardens-fl,-80.35237,25.881071,hialeah,gardens
Holly Hill Neighborhood Market,3862,386-672-3836,"1905 Nova Rd, Holly Hill, FL 32117",https://www.walmart.com/store/3862-holly-hill-fl,-81.06735,29.248898,holly,hill
Hollywood Supercenter,3163,754-260-6713,"301 S State Road 7, Hollywood, FL 33023",https://www.walmart.com/store/3163-hollywood-fl,-80.20435,26.007577,hollywood,fl
Homosassa Supercenter,1029,352-628-4161,"6885 S Suncoast Blvd, Homosassa, FL 34446",https://www.walmart.com/store/1029-homosassa-fl,-82.54999,28.762864,homosassa,fl
Hudson Supercenter,5266,727-861-0040,"12610 Us Highway 19, Hudson, FL 34667",https://www.walmart.com/store/5266-hudson-fl,-82.69604,28.340611,hudson,fl
Inverness Supercenter,1104,352-637-2300,"2461 E Gulf To Lake Hwy, Inverness, FL 34453",https://www.walmart.com/store/1104-inverness-fl,-82.39259,28.857739,inverness,fl
Jupiter Supercenter,2176,561-746-6422,"2144 W Indiantown Rd, Jupiter, FL 33458",https://www.walmart.com/store/2176-jupiter-fl,-80.12840,26.932599,jupiter,fl
Kendall Supercenter,1680,305-383-3611,"15885 Sw 88th St, Kendall, FL 33196",https://www.walmart.com/store/1680-kendall-fl,-80.44881,25.685324,kendall,fl
Labelle Supercenter,6190,863-302-6012,"1951 W Hickpochee Ave, Labelle, FL 33935",https://www.walmart.com/store/6190-labelle-fl,-81.46868,26.737945,labelle,fl
Lake City Supercenter,767,386-755-2427,"2767 W Us Highway 90, Lake City, FL 32055",https://www.walmart.com/store/767-lake-city-fl,-82.67745,30.181309,lake,city
Lake Mary Neighborhood Market,525,407-562-4470,"825 Casa Verde Blvd, Lake Mary, FL 32746",https://www.walmart.com/store/525-lake-mary-fl,-81.30409,28.784512,lake,mary
Lake Park Supercenter,3348,561-842-8113,"101 N Congress Ave, Lake Park, FL 33403",https://www.walmart.com/store/3348-lake-park-fl,-80.08833,26.795173,lake,park
Lake Wales Supercenter,859,863-676-9425,"2000 State Road 60 E, Lake Wales, FL 33898",https://www.walmart.com/store/859-lake-wales-fl,-81.55301,27.891994,lake,wales
Lauderdale Lakes Supercenter,3625,954-733-7473,"3001 N State Road 7, Lauderdale Lakes, FL 33313",https://www.walmart.com/store/3625-lauderdale-lakes-fl,-80.20543,26.162472,lauderdale,lakes
,5772,,,https://www.walmart.com/store/5772-lecanto-fl,"{""props"":","{""props"":",lecanto,fl
Leesburg Supercenter,800,352-326-3900,"2501 Citrus Blvd, Leesburg, FL 34748",https://www.walmart.com/store/800-leesburg-fl,-81.89897,28.842541,leesburg,fl
,2237,,,https://www.walmart.com/store/2237-lehigh-acres-fl,"{""props"":","{""props"":",lehigh,acres
Live Oak Supercenter,2626,386-330-2488,"6868 Us Highway 129, Live Oak, FL 32060",https://www.walmart.com/store/2626-live-oak-fl,-82.96396,30.324465,live,oak
,988,,,https://www.walmart.com/store/988-lutz-fl,"{""props"":","{""props"":",lutz,fl
,1032,,,https://www.walmart.com/store/1032-lynn-haven-fl,"{""props"":","{""props"":",lynn,haven
,1205,,,https://www.walmart.com/store/1205-macclenny-fl,"{""props"":","{""props"":",macclenny,fl
Margate Supercenter,5325,954-975-8682,"5555 W Atlantic Blvd, Margate, FL 33063",https://www.walmart.com/store/5325-margate-fl,-80.20305,26.237493,margate,fl
Merritt Island Supercenter,771,321-452-6058,"1500 E Merritt Island Cswy, Merritt Island, FL 32952",https://www.walmart.com/store/771-merritt-island-fl,-80.66845,28.359635,merritt,island
,990,,,https://www.walmart.com/store/990-milton-fl,,,milton,fl
Miramar Supercenter,1511,954-433-9300,"1800 South University Drive, Miramar, FL 33025",https://www.walmart.com/store/1511-miramar-fl,-80.25042,25.993507,miramar,fl
Mount Dora Supercenter,705,352-735-3000,"17030 Us Highway 441, Mount Dora, FL 32757",https://www.walmart.com/store/705-mount-dora-fl,-81.67313,28.817715,mount,dora
,5035,,,https://www.walmart.com/store/5035-mulberry-fl,"{""props"":","{""props"":",mulberry,fl
New Smyrna Beach Supercenter,1079,386-427-5767,"3155 State Rd 44, New Smyrna Beach, FL 32168",https://www.walmart.com/store/1079-new-smyrna-beach-fl,-80.99366,29.015677,new,smyrna
Niceville Supercenter,5845,850-389-3013,"1300 John Sims Pkwy E, Niceville, FL 32578",https://www.walmart.com/store/5845-niceville-fl,-86.46028,30.517349,niceville,fl
North Fort Myers Supercenter,623,239-997-9991,"545 Pine Island Rd, North Fort Myers, FL 33903",https://www.walmart.com/store/623-north-fort-myers-fl,-81.89849,26.679515,north,fort
North Lauderdale Supercenter,1851,954-726-3388,"7900 W Mcnab Rd, North Lauderdale, FL 33068",https://www.walmart.com/store/1851-north-lauderdale-fl,-80.22969,26.205328,north,lauderdale
North Miami Beach Supercenter,3235,305-949-5881,"1425 Ne 163rd St, North Miami Beach, FL 33162",https://www.walmart.com/store/3235-north-miami-beach-fl,-80.17123,25.928322,north,miami
Ocoee Supercenter,942,407-877-6900,"10500 W Colonial Dr, Ocoee, FL 34761",https://www.walmart.com/store/942-ocoee-fl,-81.53240,28.549566,ocoee,fl
Okeechobee Supercenter,814,863-763-7070,"2101 S Parrott Ave, Okeechobee, FL 34974",https://www.walmart.com/store/814-okeechobee-fl,-80.82806,27.221349,okeechobee,fl
Oldsmar Supercenter,2796,813-854-3261,"3801 Tampa Rd, Oldsmar, FL 34677",https://www.walmart.com/store/2796-oldsmar-fl,-82.67368,28.043696,oldsmar,fl
Orange City Supercenter,563,386-775-1500,"2400 Veterans Memorial Pkwy, Orange City, FL 32763",https://www.walmart.com/store/563-orange-city-fl,-81.27889,28.913784,orange,city
Ormond Beach Supercenter,613,386-672-2104,"1521 W Granada Blvd, Ormond Beach, FL 32174",https://www.walmart.com/store/613-ormond-beach-fl,-81.11500,29.258852,ormond,beach
Osprey Supercenter,5264,941-918-1247,"13140 S Tamiami Trl, Osprey, FL 34229",https://www.walmart.com/store/5264-osprey-fl,-82.48612,27.193095,osprey,fl
Palatka Supercenter,551,386-328-6733,"1024 S State Road 19, Palatka, FL 32177",https://www.walmart.com/store/551-palatka-fl,-81.68096,29.638512,palatka,fl
Palm Bay Supercenter,5455,321-723-2171,"1040 Malabar Rd Se, Palm Bay, FL 32907",https://www.walmart.com/store/5455-palm-bay-fl,-80.64185,27.996703,palm,bay
Palm Coast Supercenter,1182,386-446-8486,"174 Cypress Point Pkwy, Palm Coast, FL 32164",https://www.walmart.com/store/1182-palm-coast-fl,-81.22535,29.549789,palm,coast
Palm Springs Supercenter,5882,561-223-4357,"2765 10th Ave N, Palm Springs, FL 33461",https://www.walmart.com/store/5882-palm-springs-fl,-80.08386,26.630909,palm,springs
Palm Springs Village Neighborhood Market,4441,561-530-1237,"4400 Forest Hill Blvd., Palm Springs Village, FL 33406",https://www.walmart.com/store/4441-palm-springs-village-fl,-80.11057,26.650204,palm,springs
Palmetto Supercenter,3370,941-723-2199,"508 10th St E, Palmetto, FL 34221",https://www.walmart.com/store/3370-palmetto-fl,-82.55917,27.523773,palmetto,fl
Panama City Supercenter,3075,850-691-0716,"513 W 23rd St, Panama City, FL 32405",https://www.walmart.com/store/3075-panama-city-fl,-85.66791,30.187622,panama,city
Pasadena Neighborhood Market,3161,727-202-3106,"6850 Gulfport Blvd S, Pasadena, FL 33707",https://www.walmart.com/store/3161-pasadena-fl,-82.73423,27.757231,pasadena,fl
Perry Supercenter,5172,850-223-4179,"1900 S Jefferson St, Perry, FL 32348",https://www.walmart.com/store/5172-perry-fl,-83.58007,30.102033,perry,fl
Plant City Supercenter,547,813-752-1188,"2602 James L Redman Pkwy, Plant City, FL 33566",https://www.walmart.com/store/547-plant-city-fl,-82.11893,27.986077,plant,city
Plantation Neighborhood Market,4595,954-472-3134,"1885 N Pine Island Rd, Plantation, FL 33322",https://www.walmart.com/store/4595-plantation-fl,-80.27012,26.149383,plantation,fl
Port Richey Supercenter,1085,727-846-9504,"8701 Us Highway 19, Port Richey, FL 34668",https://www.walmart.com/store/1085-port-richey-fl,-82.71849,28.283363,port,richey
Port Saint Lucie Neighborhood Market,5704,772-301-6125,"3045 Sw Port St Lucie Blvd, Port Saint Lucie, FL 34953",https://www.walmart.com/store/5704-port-st.-lucie-fl,-80.37508,27.252604,port,st.
Punta Gorda Supercenter,778,941-637-3800,"5001 Taylor Rd, Punta Gorda, FL 33950",https://www.walmart.com/store/778-punta-gorda-fl,-82.01311,26.893302,punta,gorda
Quincy Supercenter,488,850-875-1661,"1940 Pat Thomas Pkwy, Quincy, FL 32351",https://www.walmart.com/store/488-quincy-fl,-84.59553,30.556986,quincy,fl
Sebastian Supercenter,1068,772-589-8528,"2001 Us Highway 1, Sebastian, FL 32958",https://www.walmart.com/store/1068-sebastian-fl,-80.48183,27.829346,sebastian,fl
Sebring Supercenter,666,863-471-1200,"3525 Us Highway 27 N, Sebring, FL 33870",https://www.walmart.com/store/666-sebring-fl,-81.49704,27.512875,sebring,fl
Seffner Store,925,813-681-6654,"11720 E Dr Martin Luther King Jr Blvd, Seffner, FL 33584",https://www.walmart.com/store/925-seffner-fl,-82.30136,27.984148,seffner,fl
St Augustine Supercenter,579,904-797-3309,"2355 Us Highway 1 S, St Augustine, FL 32086",https://www.walmart.com/store/579-st-augustine-fl,-81.32555,29.856206,st,augustine
Saint Johns Supercenter,928,904-417-9688,"845 Durbin Pavilion Dr, Saint Johns, FL 32259",https://www.walmart.com/store/928-st.-johns-fl,-81.52072,30.093571,st.,johns
Starke Supercenter,1283,904-964-3286,"14500 Us Highway 301 S, Starke, FL 32091",https://www.walmart.com/store/1283-starke-fl,-82.13020,29.922285,starke,fl
Stuart Supercenter,1087,772-288-4749,"4001 Se Federal Hwy, Stuart, FL 34997",https://www.walmart.com/store/1087-stuart-fl,-80.21862,27.156991,stuart,fl
Summerfield Supercenter,2843,352-307-4400,"17961 S Us Highway 441, Summerfield, FL 34491",https://www.walmart.com/store/2843-summerfield-fl,-81.96487,28.962586,summerfield,fl
Tamarac Neighborhood Market,2930,954-247-6304,"6931 Nw 88th Avenue, Tamarac, FL 33321",https://www.walmart.com/store/2930-tamarac-fl,-80.27027,26.208986,tamarac,fl
Tarpon Springs Supercenter,3415,727-940-9289,"41232 Us Highway 19 N, Tarpon Springs, FL 34689",https://www.walmart.com/store/3415-tarpon-springs-fl,-82.74351,28.147248,tarpon,springs
Titusville Supercenter,649,321-267-5825,"3175 Cheney Hwy, Titusville, FL 32780",https://www.walmart.com/store/649-titusville-fl,-80.84273,28.555293,titusville,fl
Valrico Supercenter,941,813-681-8136,"2140 Bloomingdale Avenue, Valrico, FL 33596",https://www.walmart.com/store/941-valrico-fl,-82.24824,27.896411,valrico,fl
Venice Supercenter,769,941-497-2523,"4150 Tamiami Trl S, Venice, FL 34293",https://www.walmart.com/store/769-venice-fl,-82.39575,27.047691,venice,fl
Wauchula Supercenter,759,863-773-6419,"1480 Us Highway 17 N, Wauchula, FL 33873",https://www.walmart.com/store/759-wauchula-fl,-81.81327,27.568256,wauchula,fl
Wesley Chapel Supercenter,3418,813-262-2180,"28500 State Road 54, Wesley Chapel, FL 33543",https://www.walmart.com/store/3418-wesley-chapel-fl,-82.34415,28.234735,wesley,chapel
West Melbourne Supercenter,974,321-984-2715,"845 Palm Bay Rd Ne, West Melbourne, FL 32904",https://www.walmart.com/store/974-west-melbourne-fl,-80.64779,28.037851,west,melbourne
Wimauma Supercenter,1203,813-633-1467,"4928 State Road 674, Wimauma, FL 33598",https://www.walmart.com/store/1203-wimauma-fl,-82.33255,27.715061,wimauma,fl
Winter Garden Supercenter,110,407-554-0182,"16313 New Independence Parkway, Winter Garden, FL 34787",https://www.walmart.com/store/110-winter-garden-fl,-81.62945,28.476488,winter,garden
Winter Springs Neighborhood Market,5132,407-699-7050,"5216 Red Bug Lake Rd, Winter Springs, FL 32708",https://www.walmart.com/store/5132-winter-springs-fl,-81.27813,28.648605,winter,springs
Yulee Supercenter,5037,904-261-9410,"464016 State Road 200, Yulee, FL 32097",https://www.walmart.com/store/5037-yulee-fl,-81.53452,30.619654,yulee,fl
Zephyrhills Supercenter,706,813-782-1957,"7631 Gall Blvd, Zephyrhills, FL 33541",https://www.walmart.com/store/706-zephyrhills-fl,-82.19121,28.269569,zephyrhills,fl
Adel Supercenter,7194,229-896-9980,"351 Alabama Rd, Adel, GA 31620",https://www.walmart.com/store/7194-adel-ga,-83.43994,31.133142,adel,ga
Americus Supercenter,758,229-928-0653,"1711 E Lamar St, Americus, GA 31709",https://www.walmart.com/store/758-americus-ga,-84.20219,32.060471,americus,ga
Austell Supercenter,1586,770-863-9300,"1133 E W Connector, Austell, GA 30106",https://www.walmart.com/store/1586-austell-ga,-84.58697,33.855571,austell,ga
Bainbridge Supercenter,5422,229-246-2404,"500 E Alice St, Bainbridge, GA 39819",https://www.walmart.com/store/5422-bainbridge-ga,-84.57109,30.889931,bainbridge,ga
Baxley Supercenter,5392,912-367-3117,"980 W Parker St, Baxley, GA 31513",https://www.walmart.com/store/5392-baxley-ga,-82.36466,31.786216,baxley,ga
Blairsville Supercenter,3485,706-835-2881,"2257 Hwy 515, Blairsville, GA 30512",https://www.walmart.com/store/3485-blairsville-ga,-83.99808,34.864003,blairsville,ga
Blue Ridge Supercenter,5812,706-632-9500,"97 Commerce Drive, Blue Ridge, GA 30513",https://www.walmart.com/store/5812-blue-ridge-ga,-84.32577,34.877044,blue,ridge
Bremen Supercenter,856,770-537-5531,"404 Highway 27 N Byp, Bremen, GA 30110",https://www.walmart.com/store/856-bremen-ga,-85.16351,33.707872,bremen,ga
Cairo Supercenter,858,229-377-1394,"361 8th Ave Ne, Cairo, GA 39828",https://www.walmart.com/store/858-cairo-ga,-84.20354,30.887071,cairo,ga
Calhoun Supercenter,1215,706-625-4274,"450 W Belmont Dr, Calhoun, GA 30701",https://www.walmart.com/store/1215-calhoun-ga,-84.94540,34.479441,calhoun,ga
Camilla Supercenter,843,229-336-0920,"165 Us Highway 19 S, Camilla, GA 31730",https://www.walmart.com/store/843-camilla-ga,-84.19861,31.235761,camilla,ga
Canton Supercenter,518,770-479-9891,"1550 Riverstone Pkwy, Canton, GA 30114",https://www.walmart.com/store/518-canton-ga,-84.46136,34.255496,canton,ga
Carrollton Supercenter,722,770-834-3513,"1735 S Highway 27, Carrollton, GA 30117",https://www.walmart.com/store/722-carrollton-ga,-85.07729,33.543222,carrollton,ga
Cartersville Supercenter,615,770-382-0182,"101 Market Place Blvd, Cartersville, GA 30121",https://www.walmart.com/store/615-cartersville-ga,-84.78747,34.202982,cartersville,ga
Cedartown Supercenter,727,770-748-1636,"1585 Rome Hwy, Cedartown, GA 30125",https://www.walmart.com/store/727-cedartown-ga,-85.23977,34.046304,cedartown,ga
Chamblee Supercenter,3621,770-455-0422,"1871 Chamblee Tucker Rd, Chamblee, GA 30341",https://www.walmart.com/store/3621-chamblee-ga,-84.31142,33.888542,chamblee,ga
Clayton Supercenter,2753,706-782-3039,"1455 Highway 441 S, Clayton, GA 30525",https://www.walmart.com/store/2753-clayton-ga,-83.40423,34.859785,clayton,ga
Cleveland Supercenter,4616,706-219-2304,"260 Donald E Thurmond Pkwy, Cleveland, GA 30528",https://www.walmart.com/store/4616-cleveland-ga,-83.75901,34.579087,cleveland,ga
Cochran Supercenter,7246,478-934-4919,"366 Hwy 26 East, Cochran, GA 31014",https://www.walmart.com/store/7246-cochran-ga,-83.33630,32.400273,cochran,ga
College Park Supercenter,3401,770-994-9440,"6149 Old National Hwy, College Park, GA 30349",https://www.walmart.com/store/3401-college-park-ga,-84.47214,33.586938,college,park
Commerce Supercenter,3,706-335-7563,"30983 Highway 441 S, Commerce, GA 30529",https://www.walmart.com/store/3-commerce-ga,-83.45633,34.247784,commerce,ga
Conyers Supercenter,2475,770-860-8544,"1436 Dogwood Dr Se, Conyers, GA 30013",https://www.walmart.com/store/2475-conyers-ga,-83.99665,33.652864,conyers,ga
Cordele Supercenter,1006,229-273-9270,"1215 E 16th Ave, Cordele, GA 31015",https://www.walmart.com/store/1006-cordele-ga,-83.76189,31.964712,cordele,ga
Cornelia Supercenter,1403,706-778-0353,"250 Furniture Dr, Cornelia, GA 30531",https://www.walmart.com/store/1403-cornelia-ga,-83.53176,34.536402,cornelia,ga
Dahlonega Supercenter,2513,706-867-6912,"270 Walmart Way, Dahlonega, GA 30533",https://www.walmart.com/store/2513-dahlonega-ga,-83.97243,34.538645,dahlonega,ga
Dallas Supercenter,3403,770-445-2141,"3615 Marietta Hwy, Dallas, GA 30157",https://www.walmart.com/store/3403-dallas-ga,-84.73025,33.935634,dallas,ga
Dawsonville Supercenter,3874,706-265-8787,"98 Power Center Dr, Dawsonville, GA 30534",https://www.walmart.com/store/3874-dawsonville-ga,-84.04170,34.354955,dawsonville,ga
Douglas Supercenter,593,912-384-4600,"1450 Bowens Mill Rd Se, Douglas, GA 31533",https://www.walmart.com/store/593-douglas-ga,-82.84835,31.484988,douglas,ga
Douglasville Supercenter,1488,770-489-7057,"7001 Concourse Pkwy, Douglasville, GA 30134",https://www.walmart.com/store/1488-douglasville-ga,-84.75649,33.732555,douglasville,ga
Dublin Supercenter,555,478-272-7017,"2423 Us Highway 80 W, Dublin, GA 31021",https://www.walmart.com/store/555-dublin-ga,-82.97205,32.551163,dublin,ga
Duluth Supercenter,2154,770-418-0162,"2635 Pleasant Hill Rd, Duluth, GA 30096",https://www.walmart.com/store/2154-duluth-ga,-84.15044,33.970113,duluth,ga
East Ellijay Supercenter,1070,706-276-1170,"88 Highland Xing, East Ellijay, GA 30540",https://www.walmart.com/store/1070-east-ellijay-ga,-84.48821,34.656402,east,ellijay
East Point Supercenter,6998,404-460-6177,"844 Cleveland Ave, East Point, GA 30344",https://www.walmart.com/store/6998-east-point-ga,-84.41652,33.678363,east,point
Eastman Supercenter,1018,478-374-7782,"1099 Indian Dr, Eastman, GA 31023",https://www.walmart.com/store/1018-eastman-ga,-83.17770,32.178956,eastman,ga
Eatonton Supercenter,5482,706-485-5052,"201 Walmart Dr, Eatonton, GA 31024",https://www.walmart.com/store/5482-eatonton-ga,-83.38890,33.295546,eatonton,ga
Elberton Store,1701,706-283-8660,"955 Elbert St, Elberton, GA 30635",https://www.walmart.com/store/1701-elberton-ga,-82.84525,34.092012,elberton,ga
Ellenwood Supercenter,3609,404-361-6811,"2940 Anvil Block Rd, Ellenwood, GA 30294",https://www.walmart.com/store/3609-ellenwood-ga,-84.29301,33.636295,ellenwood,ga
Evans Supercenter,3570,706-854-9892,"4469 Washington Rd, Evans, GA 30809",https://www.walmart.com/store/3570-evans-ga,-82.14233,33.545784,evans,ga
Fayetteville Supercenter,594,770-460-0947,"125 Pavilion Pkwy, Fayetteville, GA 30214",https://www.walmart.com/store/594-fayetteville-ga,-84.44322,33.481229,fayetteville,ga
Fitzgerald Supercenter,686,229-423-4353,"120 Benjamin H Hill Dr W, Fitzgerald, GA 31750",https://www.walmart.com/store/686-fitzgerald-ga,-83.24820,31.689987,fitzgerald,ga
Forsyth Supercenter,907,478-994-0163,"180 N Lee St, Forsyth, GA 31029",https://www.walmart.com/store/907-forsyth-ga,-83.94329,33.042272,forsyth,ga
Griffin Supercenter,932,770-229-5040,"1569 N Expressway, Griffin, GA 30223",https://www.walmart.com/store/932-griffin-ga,-84.29671,33.272396,griffin,ga
Hartwell Supercenter,1111,706-376-5400,"1572 Anderson Hwy, Hartwell, GA 30643",https://www.walmart.com/store/1111-hartwell-ga,-82.90492,34.349611,hartwell,ga
Hazlehurst Supercenter,1061,912-375-3627,"136 E Jarman St, Hazlehurst, GA 31539",https://www.walmart.com/store/1061-hazlehurst-ga,-82.58658,31.861931,hazlehurst,ga
Hephzibah Neighborhood Market,2465,706-691-0575,"3697 Windsor Spring Rd, Hephzibah, GA 30815",https://www.walmart.com/store/2465-hephzibah-ga,-82.07309,33.378783,hephzibah,ga
Hiram Supercenter,618,770-439-1028,"4166 Jimmy Lee Smith Pkwy, Hiram, GA 30141",https://www.walmart.com/store/618-hiram-ga,-84.75894,33.890799,hiram,ga
Holly Springs Supercenter,5814,770-213-6519,"2200 Holly Springs Pkwy, Holly Springs, GA 30115",https://www.walmart.com/store/5814-holly-springs-ga,-84.50443,34.185405,holly,springs
Jasper Supercenter,5786,706-301-5696,"1100 Old Philadelphia Rd, Jasper, GA 30143",https://www.walmart.com/store/5786-jasper-ga,-84.46007,34.476216,jasper,ga
Jesup Supercenter,2630,912-530-6335,"1100 N 1st St, Jesup, GA 31545",https://www.walmart.com/store/2630-jesup-ga,-81.87180,31.615935,jesup,ga
La Fayette Supercenter,2988,706-639-4900,"2625 N Hwy 27, La Fayette, GA 30728",https://www.walmart.com/store/2988-la-fayette-ga,-85.27341,34.746325,la,fayette
Lilburn Supercenter,1373,770-921-9224,"4004 Lawrenceville Hwy Nw, Lilburn, GA 30047",https://www.walmart.com/store/1373-lilburn-ga,-84.11045,33.902951,lilburn,ga
Lithia Springs Supercenter,3205,770-819-1123,"1100 Thornton Rd, Lithia Springs, GA 30122",https://www.walmart.com/store/3205-lithia-springs-ga,-84.60106,33.774509,lithia,springs
Locust Grove Supercenter,5709,678-734-3395,"4949 Bill Gardner Pkwy, Locust Grove, GA 30248",https://www.walmart.com/store/5709-locust-grove-ga,-84.12052,33.357363,locust,grove
Loganville Supercenter,5252,770-554-7481,"4221 Atlanta Hwy, Loganville, GA 30052",https://www.walmart.com/store/5252-loganville-ga,-83.91113,33.840987,loganville,ga
Hampton Supercenter,5363,770-471-4451,"11465 Tara Blvd, Hampton, GA 30228",https://www.walmart.com/store/5363-lovejoy-ga,-84.32577,33.442385,lovejoy,ga
Madison Supercenter,1363,706-342-9988,"1681 Eatonton Rd, Madison, GA 30650",https://www.walmart.com/store/1363-madison-ga,-83.47990,33.566138,madison,ga
Martinez Neighborhood Market,5813,706-941-5844,"3851 Evans To Locks Road, Martinez, GA 30907",https://www.walmart.com/store/5813-martinez-ga,-82.08819,33.551564,martinez,ga
Mcdonough Supercenter,3201,678-432-2023,"135 Willow Ln, Mcdonough, GA 30253",https://www.walmart.com/store/3201-mcdonough-ga,-84.18490,33.432882,mcdonough,ga
Milledgeville Supercenter,1121,478-453-0667,"2592 N Columbia St, Milledgeville, GA 31061",https://www.walmart.com/store/1121-milledgeville-ga,-83.26523,33.116411,milledgeville,ga
Monroe Supercenter,780,770-267-4527,"2050 W Spring St, Monroe, GA 30655",https://www.walmart.com/store/780-monroe-ga,-83.74218,33.798295,monroe,ga
Morrow Supercenter,1047,770-968-0774,"6065 Jonesboro Rd, Morrow, GA 30260",https://www.walmart.com/store/1047-morrow-ga,-84.34030,33.589701,morrow,ga
Moultrie Supercenter,952,229-985-6648,"641 Veterans Pkwy S, Moultrie, GA 31788",https://www.walmart.com/store/952-moultrie-ga,-83.75794,31.170209,moultrie,ga
Newnan Supercenter,494,770-502-0677,"1025 Highway 34 E, Newnan, GA 30265",https://www.walmart.com/store/494-newnan-ga,-84.74358,33.393473,newnan,ga
Norcross Supercenter,3067,770-225-9882,"4975 Jimmy Carter Blvd, Norcross, GA 30093",https://www.walmart.com/store/3067-norcross-ga,-84.19416,33.894795,norcross,ga
Oakwood Supercenter,3627,770-535-6543,"3875 Mundy Mill Rd, Oakwood, GA 30566",https://www.walmart.com/store/3627-oakwood-ga,-83.87481,34.231419,oakwood,ga
Peachtree City Supercenter,3461,770-632-6373,"2717 Highway 54, Peachtree City, GA 30269",https://www.walmart.com/store/3461-peachtree-city-ga,-84.59996,33.401188,peachtree,city
Perry Supercenter,2733,478-987-1444,"1009 Saint Patricks Dr, Perry, GA 31069",https://www.walmart.com/store/2733-perry-ga,-83.73909,32.472626,perry,ga
Pooler Supercenter,2860,912-748-2677,"160 Pooler Pkwy, Pooler, GA 31322",https://www.walmart.com/store/2860-pooler-ga,-81.24386,32.143935,pooler,ga
Rincon Supercenter,1011,912-826-4030,"434 S Columbia Ave, Rincon, GA 31326",https://www.walmart.com/store/1011-rincon-ga,-81.22587,32.274896,rincon,ga
Riverdale Supercenter,787,770-994-1670,"7050 Highway 85, Riverdale, GA 30274",https://www.walmart.com/store/787-riverdale-ga,-84.41031,33.562448,riverdale,ga
Rockmart Supercenter,4409,678-757-8766,"1801 Nathan Dean Byp, Rockmart, GA 30153",https://www.walmart.com/store/4409-rockmart-ga,-85.03038,34.013127,rockmart,ga
Roswell Supercenter,1578,770-993-0533,"970 Mansell Rd, Roswell, GA 30076",https://www.walmart.com/store/1578-roswell-ga,-84.33354,34.045275,roswell,ga
Saint Marys Supercenter,836,912-510-9216,"6586 Ga Highway 40 E, Saint Marys, GA 31558",https://www.walmart.com/store/836-saint-marys-ga,-81.61883,30.778341,saint,marys
Sandersville Supercenter,1143,478-552-1988,"1308 S Harris St, Sandersville, GA 31082",https://www.walmart.com/store/1143-sandersville-ga,-82.81213,32.951903,sandersville,ga
Suwanee Supercenter,3462,678-482-5441,"3245 Lawrenceville Suwanee Rd, Suwanee, GA 30024",https://www.walmart.com/store/3462-suwanee-ga,-84.05078,34.036489,suwanee,ga
Swainsboro Supercenter,1024,478-237-3318,"414 S Main St, Swainsboro, GA 30401",https://www.walmart.com/store/1024-swainsboro-ga,-82.33051,32.588146,swainsboro,ga
Sylvester Supercenter,7245,229-463-6004,"1102 E Franklin St, Sylvester, GA 31791",https://www.walmart.com/store/7245-sylvester-ga,-83.81174,31.525791,sylvester,ga
Thomaston Supercenter,1112,706-648-2105,"855 N Church St, Thomaston, GA 30286",https://www.walmart.com/store/1112-thomaston-ga,-84.33386,32.912474,thomaston,ga
Thomasville Supercenter,889,229-228-0144,"15328 Us Highway 19 S, Thomasville, GA 31757",https://www.walmart.com/store/889-thomasville-ga,-83.94484,30.859967,thomasville,ga
Thomson Supercenter,1658,706-595-5530,"2205 Harrison Rd Se, Thomson, GA 30824",https://www.walmart.com/store/1658-thomson-ga,-82.50156,33.480822,thomson,ga
Eastanollee Supercenter,1122,706-886-9775,"3886 Highway 17 Alt, Eastanollee, GA 30538",https://www.walmart.com/store/1122-toccoa-ga,-83.28399,34.548079,toccoa,ga
Trion Supercenter,756,706-734-2931,"13427 Highway 27, Trion, GA 30753",https://www.walmart.com/store/756-trion-ga,-85.31653,34.521792,trion,ga
Union City Supercenter,855,770-964-6921,"4735 Jonesboro Rd, Union City, GA 30291",https://www.walmart.com/store/855-union-city-ga,-84.54133,33.573216,union,city
Vidalia Supercenter,864,912-537-0889,"3109 E 1st St, Vidalia, GA 30474",https://www.walmart.com/store/864-vidalia-ga,-82.36213,32.202174,vidalia,ga
Villa Rica Supercenter,2732,770-459-6601,"600 Carrollton Villa Rica Hwy, Villa Rica, GA 30180",https://www.walmart.com/store/2732-villa-rica-ga,-84.93486,33.720106,villa,rica
Waynesboro Supercenter,2754,706-437-8380,"1500 N Liberty St, Waynesboro, GA 30830",https://www.walmart.com/store/2754-waynesboro-ga,-82.02468,33.107622,waynesboro,ga
Winder Supercenter,520,770-867-8642,"440 Atlanta Hwy N.w., Winder, GA 30680",https://www.walmart.com/store/520-winder-ga,-83.75667,33.989991,winder,ga
Hilo Store,2473,808-961-9115,"325 E Makaala St, Hilo, HI 96720",https://www.walmart.com/store/2473-hilo-hi,-155.0619,19.700194,hilo,hi
Kahului Store,3290,808-871-7820,"101 Pakaula St, Kahului, HI 96732",https://www.walmart.com/store/3290-kahului-hi,-156.4548,20.878261,kahului,hi
Kailua Kona Store,2321,808-334-0466,"75-1015 Henry St, Kailua Kona, HI 96740",https://www.walmart.com/store/2321-kailua-kona-hi,-155.9909,19.646268,kailua,kona
Kapolei Store,3883,808-206-9069,"91-600 Farrington Hwy, Kapolei, HI 96707",https://www.walmart.com/store/3883-kapolei-hi,-158.0753,21.341965,kapolei,hi
Lihue Store,2308,808-246-1599,"3-3300 Kuhio Hwy, Lihue, HI 96766",https://www.walmart.com/store/2308-lihue-hi,-159.3650,21.982346,lihue,hi
Mililani Store,2126,808-623-6744,"95-550 Lanikuhana Ave, Mililani, HI 96789",https://www.walmart.com/store/2126-mililani-hi,-158.0055,21.450001,mililani,hi
Pearl City Store,5274,808-454-8785,"1131 Kuala St, Pearl City, HI 96782",https://www.walmart.com/store/5274-pearl-city-hi,-157.9744,21.397174,pearl,city
Waipahu Store,2314,808-688-0066,"94-595 Kupuohi St, Waipahu, HI 96797",https://www.walmart.com/store/2314-waipahu-hi,-158.0345,21.391385,waipahu,hi
Altoona Supercenter,2764,515-967-1711,"3501 8th St Sw, Altoona, IA 50009",https://www.walmart.com/store/2764-altoona-ia,-93.50486,41.647048,altoona,ia
Anamosa Supercenter,646,319-462-4311,"101 115th St, Anamosa, IA 52205",https://www.walmart.com/store/646-anamosa-ia,-91.26429,42.099218,anamosa,ia
Ankeny Supercenter,892,515-963-1111,"1002 Se National Dr, Ankeny, IA 50021",https://www.walmart.com/store/892-ankeny-ia,-93.58515,41.705163,ankeny,ia
Atlantic Supercenter,3394,712-243-5214,"1905 E 7th St, Atlantic, IA 50022",https://www.walmart.com/store/3394-atlantic-ia,-94.98601,41.401589,atlantic,ia
Boone Supercenter,1389,515-432-2416,"1515 Se Marshall St, Boone, IA 50036",https://www.walmart.com/store/1389-boone-ia,-93.87008,42.036646,boone,ia
Carroll Supercenter,1787,712-792-2280,"2014 Kittyhawk Rd, Carroll, IA 51401",https://www.walmart.com/store/1787-carroll-ia,-94.89310,42.081336,carroll,ia
Cedar Falls Supercenter,753,319-277-6391,"525 Brandilynn Blvd, Cedar Falls, IA 50613",https://www.walmart.com/store/753-cedar-falls-ia,-92.44013,42.486901,cedar,falls
Centerville Supercenter,1621,641-437-7181,"23148 Hwy 5, Centerville, IA 52544",https://www.walmart.com/store/1621-centerville-ia,-92.86567,40.709184,centerville,ia
Clinton Supercenter,2889,563-243-0001,"2715 S 25th St, Clinton, IA 52732",https://www.walmart.com/store/2889-clinton-ia,-90.24268,41.818652,clinton,ia
Coralville Supercenter,2827,319-545-6400,"2801 Commerce Dr, Coralville, IA 52241",https://www.walmart.com/store/2827-coralville-ia,-91.61242,41.697598,coralville,ia
Creston Supercenter,1435,641-782-6954,"806 Laurel St, Creston, IA 50801",https://www.walmart.com/store/1435-creston-ia,-94.37281,41.045448,creston,ia
Decorah Supercenter,913,563-382-8737,"1798 Old Stage Rd, Decorah, IA 52101",https://www.walmart.com/store/913-decorah-ia,-91.75402,43.291658,decorah,ia
Denison Supercenter,1732,712-263-2000,"510 Avenue C, Denison, IA 51442",https://www.walmart.com/store/1732-denison-ia,-95.37166,42.026224,denison,ia
Dubuque Supercenter,2004,563-582-1003,"4200 Dodge St, Dubuque, IA 52003",https://www.walmart.com/store/2004-dubuque-ia,-90.73628,42.487546,dubuque,ia
Fairfield Supercenter,985,641-472-6858,"2701 W Burlington Ave, Fairfield, IA 52556",https://www.walmart.com/store/985-fairfield-ia,-91.99323,41.007653,fairfield,ia
Fort Dodge Supercenter,886,515-576-7400,"3036 1st Ave S, Fort Dodge, IA 50501",https://www.walmart.com/store/886-fort-dodge-ia,-94.15361,42.506219,fort,dodge
Grimes Supercenter,5748,515-986-1783,"2150 E 1st St, Grimes, IA 50111",https://www.walmart.com/store/5748-grimes-ia,-93.77140,41.685681,grimes,ia
Grinnell Supercenter,647,641-236-4999,"415 Industrial Ave, Grinnell, IA 50112",https://www.walmart.com/store/647-grinnell-ia,-92.73093,41.721968,grinnell,ia
Independence Supercenter,750,319-334-7128,"302 Enterprise Dr, Independence, IA 50644",https://www.walmart.com/store/750-independence-ia,-91.89322,42.452004,independence,ia
Indianola Supercenter,1491,515-961-8955,"1500 N Jefferson Way, Indianola, IA 50125",https://www.walmart.com/store/1491-indianola-ia,-93.55577,41.373432,indianola,ia
Iowa City Supercenter,1721,319-337-3116,"919 Highway 1 W, Iowa City, IA 52246",https://www.walmart.com/store/1721-iowa-city-ia,-91.55119,41.644112,iowa,city
Iowa Falls Store,1546,641-648-5145,"840 S Oak St, Iowa Falls, IA 50126",https://www.walmart.com/store/1546-iowa-falls-ia,-93.26039,42.502357,iowa,falls
Keokuk Supercenter,1431,319-524-6941,"300 No. Park Drive, Keokuk, IA 52632",https://www.walmart.com/store/1431-keokuk-ia,-91.41065,40.417702,keokuk,ia
Knoxville Supercenter,2935,641-828-7584,"814 W Bell Ave, Knoxville, IA 50138",https://www.walmart.com/store/2935-knoxville-ia,-93.10604,41.304907,knoxville,ia
Le Mars Supercenter,1625,712-546-4900,"1111 Holton Dr, Le Mars, IA 51031",https://www.walmart.com/store/1625-le-mars-ia,-96.18760,42.781897,le,mars
Manchester Supercenter,1506,563-927-3377,"1220 W Main St, Manchester, IA 52057",https://www.walmart.com/store/1506-manchester-ia,-91.47794,42.482282,manchester,ia
Maquoketa Supercenter,1509,563-652-6703,"103 E Carlisle, Maquoketa, IA 52060",https://www.walmart.com/store/1509-maquoketa-ia,-90.66282,42.048821,maquoketa,ia
Marion Supercenter,3630,319-447-2395,"5491 Highway 151, Marion, IA 52302",https://www.walmart.com/store/3630-marion-ia,-91.55296,42.033289,marion,ia
Marshalltown Supercenter,581,641-753-7846,"2802 S Center St, Marshalltown, IA 50158",https://www.walmart.com/store/581-marshalltown-ia,-92.90894,42.012119,marshalltown,ia
Mason City Supercenter,810,641-423-6767,"4151 4th St Sw, Mason City, IA 50401",https://www.walmart.com/store/810-mason-city-ia,-93.26248,43.145527,mason,city
Mount Pleasant Supercenter,784,319-385-4600,"1045 N Grand Ave, Mount Pleasant, IA 52641",https://www.walmart.com/store/784-mount-pleasant-ia,-91.54184,40.979041,mount,pleasant
Muscatine Supercenter,559,563-263-8312,"3003 N Highway 61, Muscatine, IA 52761",https://www.walmart.com/store/559-muscatine-ia,-91.02492,41.457764,muscatine,ia
Newton Supercenter,748,641-791-5322,"300 Iowa Speedway Dr, Newton, IA 50208",https://www.walmart.com/store/748-newton-ia,-93.01179,41.697225,newton,ia
Osceola Supercenter,4606,641-342-1650,"2400 College Dr, Osceola, IA 50213",https://www.walmart.com/store/4606-osceola-ia,-93.80013,41.023282,osceola,ia
Oskaloosa Supercenter,1393,641-673-3839,"2203 Avenue A West, Oskaloosa, IA 52577",https://www.walmart.com/store/1393-oskaloosa-ia,-92.66986,41.298646,oskaloosa,ia
Ottumwa Supercenter,1285,641-683-1040,"1940 Venture Dr, Ottumwa, IA 52501",https://www.walmart.com/store/1285-ottumwa-ia,-92.45550,41.012502,ottumwa,ia
Pella Supercenter,751,641-628-9881,"1650 Washington St, Pella, IA 50219",https://www.walmart.com/store/751-pella-ia,-92.93362,41.412802,pella,ia
Shenandoah Supercenter,1683,712-246-4044,"705 S Fremont St, Shenandoah, IA 51601",https://www.walmart.com/store/1683-shenandoah-ia,-95.38234,40.761929,shenandoah,ia
Sioux Center Supercenter,1152,712-722-1990,"255 16th St Sw, Sioux Center, IA 51250",https://www.walmart.com/store/1152-sioux-center-ia,-96.18087,43.059787,sioux,center
